city,cityID,TGNID,latitude,longitude,birth,death,bir_sour
North Africa ,1000390000,7016886,20.526755,10.865315,1.0,0.0,1.0
Annaba ,1001000034,7001313,36.9167,7.7833,0.0,1.0,0.0
Souq Ahras ,1001540022,1087562,36.2333,8,1.0,0.0,1.0
Arquip¨¦lago de Cabo Verde ,1060000000,7001632,16,-24,1.0,0.0,1.0
Gonder ,1122180020,1089826,12.65,37.4833,0.0,1.0,0.0
Labdah ,1332330000,7000642,32.9833,14.25,1.0,0.0,1.0
Aberdeen ,1547000003,1092799,-32.4833,24.0667,1.0,0.0,1.0
Amsterdam ,1547000027,1092823,-26.6333,30.6667,1.0,1.0,0.0
Berlin ,1547030031,1092869,-32.8833,27.5833,0.0,1.0,0.0
Cape Town ,1547060008,7000811,-33.9333,18.4667,0.0,1.0,0.0
French Southern and Antarctic Territories ,2150000000,1000163,-49.5,69.5,1.0,0.0,1.0
Her¨¡t province ,3001210001,1001293,34.5,62,3.0,2.0,1.0
Chittagong ,3031060022,7002575,22.3333,91.8333,0.0,1.0,0.0
Nicosia ,3061390001,7002345,35.1667,33.3667,1.0,0.0,1.0
Beijing ,3062030302,7001758,39.9167,116.4333,0.0,3.0,0.0
Changzhou ,3062060190,7001471,31.7833,119.95,0.0,1.0,0.0
Chengdu ,3062060234,7001761,30.666,104.066,0.0,1.0,0.0
Dongping ,3062090594,1138922,35.9667,116.3333,1.0,0.0,1.0
Guilin ,3062180346,7001799,25.35,110.1833,1.0,0.0,1.0
Henan ,3062210003,7016672,34,114,1.0,0.0,1.0
Hubei ,3062210005,7002078,31,112,0.0,1.0,0.0
Haiyang ,3062210049,1068554,36.75,121.25,1.0,0.0,1.0
Hangzhou ,3062210092,7001806,30.3,120.1167,1.0,2.0,0.0
Kunshan ,3062300106,1069581,31.35,120.95,1.0,0.0,1.0
Lanxi ,3062330073,1069668,29.2,119.45,1.0,0.0,1.0
Lin'an ,3062330261,1069840,30.2667,119.7167,0.0,1.0,0.0
Meishan ,3062360181,1070405,30.0333,103.8167,1.0,0.0,1.0
Nanjing ,3062390068,7001892,32.05,118.7833,0.0,1.0,0.0
Shanghang ,3062540233,1071450,25.05,116.4167,1.0,0.0,1.0
Suzhou ,3062540950,7018059,31.35,120.6667,1.0,2.0,0.0
Xiangcheng ,3062690061,1139797,31.4833,120.7167,1.0,1.0,0.0
Xiaogan ,3062690127,1072825,30.9167,113.9,1.0,0.0,1.0
Yangzhou ,3062720139,7001999,32.3667,119.3667,0.0,2.0,0.0
Zhejiang ,3062750000,7002076,29,120,1.0,0.0,1.0
Babylonia ,3240030008,7013255,33.240526,43.68985,0.0,1.0,0.0
_gra ,3241000028,7001493,27.183,78.016,0.0,1.0,0.0
Calcutta ,3241060002,7030776,22.5,88.3333,0.0,1.0,0.0
Goa ,3241180082,7018161,15.5167,73.9333,0.0,1.0,0.0
Murshidabad ,3241360257,1076286,24.1833,88.3167,0.0,1.0,0.0
Th¨¡na ,3241570071,1077154,19.2,72.9667,0.0,1.0,0.0
Indonesia ,3242000000,1000116,-5,120,0.0,1.0,0.0
_r¨¡n ,3243000000,7000231,32,53,1.0,0.0,1.0
E_fah¨¡n province ,3243120001,1001228,32.8333,51.8333,0.0,1.0,0.0
E_fah¨¡n ,3243120005,7017459,32.6833,51.6833,0.0,1.0,0.0
Kashan ,3243300018,1079129,33.9833,51.5833,1.0,0.0,1.0
M¨¡zandar¨¡n ,3243360001,1001403,36.5,53.5,0.0,1.0,0.0
Mashhad ,3243360016,7002247,36.2667,59.5667,2.0,1.0,1.0
Qazv¨©n ,3243480009,1079247,36.2667,50,0.0,1.0,0.0
Sh¨©r¨¡z ,3243540044,7002148,29.6333,52.5667,1.0,1.0,0.0
Tabr¨©z ,3243570003,7002156,38.0833,46.3,3.0,1.0,1.0
Akita ,3271000048,7004842,39.7333,140.0833,0.0,1.0,0.0
Awaji ,3271000130,1079845,34.5833,135.0167,1.0,0.0,1.0
Aichi prefecture ,3271000144,7016579,35,137.25,1.0,0.0,1.0
Hagi ,3271210012,7004483,34.4167,131.3667,0.0,1.0,0.0
Hara ,3271210048,1140365,35.9667,138.2333,1.0,1.0,0.0
Harima ,3271210053,1080057,34.7,134.8833,2.0,0.0,1.0
Kameoka ,3271300041,1080377,35.0333,135.5833,1.0,0.0,1.0
Kuwana ,3271300430,7004602,35.0667,136.6667,0.0,1.0,0.0
Kyoto ,3271300435,7004603,35,135.75,15.0,17.0,0.0
Kumamoto prefecture ,3271300441,1000997,32.5,130.6667,0.0,1.0,0.0
Nagasaki ,3271390020,7004735,32.75,129.8667,0.0,1.0,0.0
Nanao ,3271390088,1080963,37.05,136.9667,1.0,0.0,1.0
Nagasaki prefecture ,3271390207,7000276,32.8333,129.9167,2.0,0.0,1.0
_saka ,3271420146,7004756,34.6667,135.5,1.0,0.0,1.0
Osaka ,3271420147,1081126,35.95,137.2833,3.0,0.0,1.0
Shido ,3271540130,1081282,34.3167,134.1667,1.0,0.0,1.0
Shiga prefecture ,3271540286,7000277,35.25,136,1.0,0.0,1.0
Tokyo ,3271570170,7004472,35.75,139.5,7.0,15.0,0.0
Madrid ,3451360015,1084386,9.25,125.9833,0.0,1.0,0.0
Russia ,3510000000,7002435,60,47,1.0,0.0,1.0
Arkhangelskoye ,3510000275,1137219,53.25,37.7333,0.0,1.0,0.0
Dol'skoye ,3510090109,1053665,54.7833,36.4333,1.0,0.0,1.0
Kaliningrad ,3510300047,7013050,54.6667,20.5,4.0,0.0,1.0
Kholmogory ,3510300363,1053364,64.2,41.7,1.0,1.0,0.0
Kostroma ,3510300722,7010179,57.7667,40.9833,1.0,1.0,0.0
Moscow ,3510360392,7012974,55.75,37.7,7.0,5.0,1.0
Saint Petersburg ,3510540053,7010273,59.8833,30.25,2.0,20.0,0.0
Solikamsk ,3510540530,1059594,59.6667,56.75,1.0,0.0,1.0
Tobol'sk ,3510570209,7014917,58.25,68.2,1.0,0.0,1.0
Mecca ,3540360005,7003870,21.45,39.8167,0.0,1.0,0.0
Syria ,3543000000,1000140,35,38,1.0,0.0,1.0
Aleppo ,3543000102,7002252,36.2333,37.1667,0.0,1.0,0.0
Damascus ,3543090021,7002261,33.5,36.3167,1.0,0.0,1.0
Haenam ,3544210001,1082233,34.5833,126.5833,1.0,1.0,0.0
Turkey ,3573000000,1000144,39,35,0.0,1.0,0.0
Istanbul ,3573240047,7002473,41.0333,28.95,0.0,5.0,0.0
Trabzon ,3573570050,7002631,41,39.7167,1.0,0.0,1.0
Uzbekistan ,3601000000,7006661,41,64,1.0,0.0,1.0
Bukhara ,3601030010,7016820,39.5,64.5,0.0,1.0,0.0
Brabant ,4000030003,7003463,54.322554,4.30165,1.0,0.0,1.0
Flanders, historical ,4000150000,7024097,49.8333,5.3333,5.0,0.0,1.0
Illyria ,4000240000,7016683,54.322554,4.30165,1.0,0.0,1.0
Lorraine ,4000330004,7024272,49,6,1.0,0.0,1.0
Lower Rhine ,4000330007,7013246,54.322554,4.30165,1.0,0.0,1.0
Prussia ,4000450005,7016786,54.322554,4.30165,1.0,0.0,1.0
Silesia ,4000540003,7007552,50.864519,16.82592,1.0,1.0,0.0
Austria ,4002000000,1000062,47.3333,13.3333,2.0,1.0,1.0
Admont ,4002000007,7003114,47.5833,14.4667,0.0,1.0,0.0
Annaberg ,4002000032,7003393,47.8833,15.4,1.0,0.0,1.0
Bad Sankt Leonhard im Lavanttal ,4002030016,7003060,46.9667,14.8,0.0,1.0,0.0
Brunn am Gebirge ,4002030053,1025470,48.1167,16.2833,0.0,1.0,0.0
Brunn ,4002030057,7030577,46.75,15.316,0.0,1.0,0.0
Engelhartszell ,4002120024,1025512,48.5167,13.75,0.0,1.0,0.0
Feldkirch ,4002150006,7003119,47.25,9.6333,1.0,0.0,1.0
Friedberg ,4002150029,1025550,47.45,16.05,1.0,0.0,1.0
G_tzens ,4002180032,4004172,47.236031,11.31134,1.0,0.0,1.0
Graz ,4002180039,7003097,47.0833,15.3667,4.0,4.0,0.0
Hall in Tirol ,4002210012,1025641,47.2833,11.5167,2.0,2.0,0.0
Heiligenkreuz ,4002210026,4004909,48.05608,16.12797,0.0,1.0,0.0
Helfenberg ,4002210029,1025651,48.55,14.15,1.0,0.0,1.0
Imst ,4002240002,7003250,47.2333,10.75,2.0,0.0,1.0
Innsbruck ,4002240006,7003249,47.2667,11.4,18.0,11.0,1.0
Kitzb¨¹hel ,4002300029,7003244,47.45,12.3833,2.0,2.0,0.0
Klagenfurt ,4002300030,7003084,46.6333,14.3333,1.0,0.0,1.0
Kufstein ,4002300059,7016924,47.6,12.1833,1.0,0.0,1.0
Linz ,4002330044,7003199,48.3167,14.3,1.0,2.0,0.0
Mauerkirchen ,4002360027,1025838,48.1833,13.1333,1.0,0.0,1.0
Mondsee ,4002360056,7003277,47.8667,13.35,0.0,1.0,0.0
Ober_sterreich ,4002420000,7003026,48.25,14,0.0,1.0,0.0
Osttirol ,4002420027,1112109,46.9167,12.5,1.0,0.0,1.0
Pfunds ,4002450022,1025947,46.9667,10.5667,1.0,1.0,0.0
Reutte ,4002510032,7003253,47.5,10.7333,3.0,2.0,1.0
Ried im Innkreis ,4002510034,7003281,48.2167,13.4833,2.0,2.0,0.0
Salzburg ,4002540006,7003256,47.8,13.05,6.0,5.0,1.0
Sankt Martin ,4002540033,1026038,47.4667,13.3833,1.0,0.0,1.0
Sankt P_lten ,4002540044,7003190,48.2,15.6167,0.0,1.0,0.0
Schwaz ,4002540080,7003247,47.35,11.7333,0.0,1.0,0.0
See ,4002540084,1026079,47.3,10.9667,1.0,0.0,1.0
Stams ,4002540127,7003252,47.2667,10.9833,0.0,1.0,0.0
Steyr ,4002540136,7003303,48.0667,14.4167,1.0,0.0,1.0
Telfs ,4002570007,7003251,47.3167,11.0833,1.0,0.0,1.0
Th_rl ,4002570017,1026143,47.5333,15.2167,1.0,0.0,1.0
Villach ,4002630006,7003232,46.6167,13.85,0.0,1.0,0.0
Vils ,4002630007,1026185,47.5667,10.6167,0.0,1.0,0.0
Vienna ,4002630021,7003321,48.2167,16.3667,23.0,80.0,0.0
Wels ,4002660029,7012348,48.1667,14.0333,0.0,1.0,0.0
Wolfsberg ,4002660055,7003063,46.8333,14.8333,1.0,0.0,1.0
Ebenfurth ,4002750017,7029518,47.866,16.366,1.0,0.0,1.0
Berat province ,4003030000,7006424,40.7,19.95,1.0,0.0,1.0
Durr_s ,4003090003,7010750,41.3,19.4667,1.0,0.0,1.0
Belgium ,4031000000,1000063,50.8333,4,1.0,1.0,0.0
Aalst ,4031000001,7006843,50.936041,4.035499,1.0,0.0,1.0
Antwerp ,4031000019,7007856,51.213886,4.401514,248.0,172.0,1.0
Arendonk ,4031000021,1026290,51.316667,5.083333,0.0,1.0,0.0
Antwerpen province ,4031000036,7003456,51.166667,4.833333,0.0,1.0,0.0
Baarle-Hertog ,4031030001,1026306,51.45,4.933333,1.0,0.0,1.0
Berchem ,4031030021,7008822,50.8167,4.4333,0.0,1.0,0.0
Berchem ,4031030022,1136644,51.196044,4.423119,1.0,0.0,1.0
Bruges ,4031030066,7007867,51.210933,3.225971,10.0,12.0,0.0
Brussels ,4031030068,7007868,50.833333,4.333333,37.0,37.0,0.0
Comblain-au-Pont ,4031060012,1026374,50.466667,5.583333,1.0,0.0,1.0
Dendermonde ,4031090006,7007872,51.028691,4.101059,1.0,0.0,1.0
Deurne ,4031090013,1026393,51.221343,4.465948,0.0,1.0,0.0
Diest ,4031090015,7007874,50.983333,5.05,1.0,0.0,1.0
Dinant ,4031090019,7007875,50.264655,4.923573,1.0,1.0,0.0
Duffel ,4031090023,7007876,51.095756,4.501418,1.0,0.0,1.0
Flanders ,4031150000,7018236,51.096245,4.22834,1.0,0.0,1.0
Ghent ,4031180010,7007887,51.05,3.716667,21.0,14.0,1.0
Herentals ,4031210029,7007892,51.176551,4.832476,3.0,0.0,1.0
Huy ,4031210055,7007896,50.523582,5.241276,1.0,1.0,0.0
Ypres ,4031240001,7007899,50.851142,2.885688,4.0,2.0,1.0
Courtrai ,4031300020,7007934,50.824053,3.267595,4.0,0.0,1.0
Louvain ,4031330020,7007949,50.883333,4.7,5.0,3.0,1.0
Li¨¨ge ,4031330028,7007945,50.638674,5.570228,17.0,10.0,1.0
Lier ,4031330029,7016996,51.131282,4.570415,2.0,1.0,1.0
Maaseik ,4031360000,7007951,51.1,5.8,2.0,0.0,1.0
Mechelen ,4031360016,7008736,51.028298,4.479327,30.0,11.0,1.0
Meulebeke ,4031360031,1026607,50.951356,3.288044,1.0,0.0,1.0
Mons ,4031360041,7007961,50.3,3.9667,3.0,4.0,0.0
Namur ,4031390003,7007960,50.469923,4.82577,2.0,1.0,1.0
Oudenaarde ,4031420019,7007972,50.851684,3.608914,1.0,0.0,1.0
Saint Truiden ,4031540014,7008735,50.816788,5.18647,2.0,0.0,1.0
Soignies ,4031540037,1026742,50.579416,4.070123,1.0,0.0,1.0
Tilff ,4031570013,1026763,50.566667,5.583333,1.0,0.0,1.0
Tournai ,4031570018,7008002,50.60715,3.389321,3.0,1.0,1.0
B¨ªlina ,4060030010,1027066,50.5333,13.8,1.0,0.0,1.0
Brno ,4060030039,7011840,49.2167,16.6667,2.0,1.0,1.0
Bohemia ,4060030057,7006470,49.3333,14.5,1.0,0.0,1.0
Cheb ,4060060021,7010618,50.1333,12.4667,1.0,0.0,1.0
Chomutov ,4060060026,1027132,50.45,13.4333,1.0,0.0,1.0
Hole_ov ,4060210013,1027200,49.3333,17.5833,1.0,0.0,1.0
Karlovy Vary ,4060300007,7011521,50.2167,12.8667,0.0,1.0,0.0
Kutn¨¢ Hora ,4060300058,7011655,49.95,15.25,0.0,1.0,0.0
Moravia ,4060360032,7006467,49.803795,15.475265,1.0,0.0,1.0
Olomouc ,4060420001,7011841,49.6333,17.25,1.0,1.0,0.0
Pacov ,4060450000,1027455,49.4833,15.0167,0.0,1.0,0.0
Prague ,4060450028,7006464,50.1,14.4333,12.0,28.0,0.0
Severocesky Kraj ,4060540000,1003527,50.5833,14.25,1.0,0.0,1.0
Silesia ,4060540022,4010532,49.803795,15.475265,1.0,0.0,1.0
Tova_ov ,4060570012,4011311,49.4333,17.2833,0.0,1.0,0.0
_st¨ª nad Labem ,4060600016,1027001,50.6833,14,1.0,0.0,1.0
Croatia ,4061000000,7006663,45.1667,15.5,2.0,0.0,1.0
Kor_ula ,4061300015,7015511,42.95,17.1333,0.0,1.0,0.0
Lepoglava ,4061330002,4006310,46.2167,16.0333,0.0,1.0,0.0
_ibenik ,4061540007,7015447,43.75,15.9167,2.0,2.0,0.0
Solin ,4061540017,7017320,43.55,16.5,0.0,1.0,0.0
Split ,4061540018,7015546,43.5167,16.4667,0.0,1.0,0.0
Vrana ,4061630025,7024750,44.266,14.8,1.0,0.0,1.0
Zadar ,4061750003,7015549,44.1167,15.2333,2.0,0.0,1.0
Denmark ,4090000000,1000066,56,10,2.0,3.0,0.0
Aarhus ,4090000020,7003442,56.1667,10.2167,1.0,0.0,1.0
Copenhagen ,4090060002,7003474,55.7167,12.5667,16.0,31.0,0.0
Haraldsted ,4090210010,1027874,55.5,11.7833,1.0,0.0,1.0
Helsing_r ,4090210033,7003553,56.05,12.6333,2.0,1.0,1.0
Hiller_d ,4090210044,7003556,55.9333,12.3167,1.0,0.0,1.0
Lyngby ,4090330031,4006684,55.722735,12.555265,0.0,1.0,0.0
Sor_ ,4090540059,7003597,55.4333,11.5667,0.0,1.0,0.0
Estonia ,4120000000,7006540,59,26,1.0,0.0,1.0
Tallinn ,4120570001,7006629,59.433,24.728,2.0,1.0,1.0
France ,4151000000,1000070,46,2,4.0,2.0,1.0
Abbeville ,4151000005,7010587,50.1,1.8333,9.0,1.0,1.0
Agen ,4151000024,7008189,44.2,.6333,1.0,0.0,1.0
Agnetz ,4151000025,5001495,49.3833,2.3833,1.0,0.0,1.0
L'Aigle ,4151000032,1033561,48.7667,.6333,1.0,0.0,1.0
Aigues-Mortes ,4151000038,7008369,43.5667,4.1833,1.0,0.0,1.0
Aix-en-Provence ,4151000064,7010786,43.5167,5.45,10.0,13.0,0.0
Amboise ,4151000123,7008272,47.4167,1,2.0,1.0,1.0
Amiens ,4151000131,7010588,49.9,2.3,5.0,1.0,1.0
Les Andelys ,4151000148,1033969,49.25,1.4333,1.0,0.0,1.0
Angers ,4151000159,7008480,47.4833,-.5333,4.0,4.0,0.0
Annecy ,4151000175,7012322,45.9,6.1167,1.0,0.0,1.0
Argenteuil ,4151000228,7008019,48.95,2.25,1.0,0.0,1.0
Arles ,4151000241,7008775,43.6833,4.6333,5.0,1.0,1.0
Arpajon ,4151000253,7008660,48.5833,2.25,0.0,1.0,0.0
Arras ,4151000257,7008468,50.2833,2.7667,1.0,0.0,1.0
Auch ,4151000306,7008672,43.6667,.6,1.0,1.0,0.0
Aumale ,4151000326,1031913,49.7667,1.75,1.0,1.0,0.0
Avignon ,4151000374,7008799,43.9333,4.8,16.0,15.0,1.0
Avon ,4151000380,1031954,48.4,2.7167,1.0,0.0,1.0
Aude ,4151000409,7002904,43.0833,2.5,1.0,0.0,1.0
Burgundy region ,4151030001,7002875,47,4.5167,1.0,0.0,1.0
Brittany ,4151030002,7012216,48,-3.0167,1.0,0.0,1.0
Bagnolet ,4151030011,7008934,48.8667,2.4167,2.0,0.0,1.0
Bar-le-Duc ,4151030052,7008983,48.7667,5.1667,1.0,0.0,1.0
Bayeux ,4151030085,7008208,49.2667,-.7,4.0,2.0,1.0
Bayonne ,4151030087,7008192,43.5,-1.4667,0.0,1.0,0.0
Beauvais ,4151030136,7010570,49.4333,2.0833,2.0,1.0,1.0
Bergues ,4151030191,7008455,50.9667,2.4333,0.0,1.0,0.0
Bernay ,4151030194,7008949,49.1,.6,2.0,1.0,1.0
Besan_on ,4151030207,7008356,47.2333,6.0333,6.0,3.0,1.0
B¨¦thune ,4151030221,7008986,50.5333,2.6333,1.0,0.0,1.0
Blois ,4151030294,7008320,47.6,1.3333,4.0,2.0,1.0
Bologne ,4151030322,1032204,48.2,5.1333,1.0,0.0,1.0
Bordeaux ,4151030351,7008161,44.8333,-.5667,2.0,4.0,0.0
Boulange ,4151030371,4001733,49.3833,5.95,1.0,0.0,1.0
Boulogne ,4151030378,7016632,50.7167,1.6167,1.0,2.0,0.0
Bourges ,4151030399,7017415,47.0833,2.3833,2.0,2.0,0.0
Brest ,4151030468,7008258,48.3833,-4.5,2.0,1.0,1.0
Brignoles ,4151030497,1032328,43.4167,6.05,2.0,1.0,1.0
Caen ,4151060011,7008209,49.1833,-.3667,5.0,4.0,1.0
Cahors ,4151060013,7008446,44.4667,.4333,1.0,0.0,1.0
Cambrai ,4151060028,7008456,50.1667,3.2333,1.0,0.0,1.0
Ch_lons-sur-Marne ,4151060181,7008339,48.9667,4.3667,7.0,1.0,1.0
Champagne ,4151060204,7008581,45.2667,4.8,1.0,0.0,1.0
Champigneulles ,4151060222,7009016,48.7333,6.1667,1.0,0.0,1.0
Charenton-le-Pont ,4151060254,7007614,48.8167,2.4167,0.0,1.0,0.0
Chartres ,4151060276,7008267,48.45,1.5,3.0,2.0,1.0
Ch_teaudun ,4151060285,7008268,48.0667,1.3333,1.0,0.0,1.0
Ch_teau-Thierry ,4151060309,7009027,49.05,3.4,1.0,0.0,1.0
Ch_tenay-Malabry ,4151060321,7007981,48.7667,2.3,0.0,1.0,0.0
la Ch_tre ,4151060341,1033613,46.5833,1.9833,1.0,0.0,1.0
Chaumont ,4151060350,7009035,48.1167,5.1333,2.0,0.0,1.0
Chaumont-sur-Loire ,4151060354,1032635,47.4833,1.1833,0.0,1.0,0.0
Clermont ,4151060445,1032695,49.3833,2.4333,1.0,0.0,1.0
Cognac ,4151060463,7008568,45.7,-.3167,1.0,0.0,1.0
Colmar ,4151060476,7008119,48.0833,7.35,3.0,1.0,1.0
Corbigny ,4151060538,1032762,47.25,3.6667,1.0,0.0,1.0
Coulommiers ,4151060583,1032791,48.8167,3.0833,1.0,0.0,1.0
Coutances ,4151060629,7008215,49.05,-1.4833,0.0,1.0,0.0
Corr¨¨ze ,4151060724,7002922,45.3333,1.8333,1.0,0.0,1.0
Dieppe ,4151090057,7008922,49.9167,1.0833,4.0,0.0,1.0
Dijon ,4151090064,7008224,47.3333,5.0333,3.0,5.0,0.0
D_le ,4151090076,7009146,47.0833,5.5,2.0,0.0,1.0
Douai ,4151090106,7008458,50.3667,3.0833,3.0,1.0,1.0
Dreux ,4151090128,7008269,48.7333,1.3833,1.0,0.0,1.0
Dunkirk ,4151090141,7010042,51.0333,2.3833,1.0,1.0,0.0
Ermont ,4151120072,1033027,49,2.25,0.0,1.0,0.0
Etampes-sur-Marne ,4151120105,4003736,49.034389,3.42048,1.0,0.0,1.0
Eu ,4151120113,7009169,50.05,1.4167,4.0,0.0,1.0
_vreux ,4151120125,7008924,49.05,1.1833,0.0,1.0,0.0
Falaise ,4151150005,7009173,48.9,-.1833,1.0,0.0,1.0
Ferri¨¨res-en-Brie ,4151150047,1033091,48.8167,2.7167,1.0,0.0,1.0
Fontainebleau ,4151150107,7008005,48.4,2.7,4.0,8.0,0.0
Gennevilliers ,4151180049,7009201,48.9333,2.2833,0.0,1.0,0.0
Gra_ay ,4151180130,1033315,47.15,1.85,1.0,0.0,1.0
Gray ,4151180165,7008357,47.45,5.5833,1.0,0.0,1.0
Grenoble ,4151180169,7008759,45.1833,5.7167,1.0,0.0,1.0
Hesdin ,4151210067,7008475,50.3667,2.05,1.0,0.0,1.0
Hondschoote ,4151210084,7009234,50.9833,2.5833,0.0,1.0,0.0
Ivry-sur-Seine ,4151240036,7009242,48.8167,2.3833,1.0,0.0,1.0
Joigny ,4151270023,7008253,47.9833,3.4,1.0,0.0,1.0
Lorraine ,4151330002,7002888,49,6,3.0,0.0,1.0
Langres ,4151330148,7008343,47.8833,5.3333,6.0,2.0,1.0
Languedoc ,4151330149,7002884,43.134191,1.666322,1.0,0.0,1.0
Laon ,4151330158,7010220,49.5667,3.6167,3.0,0.0,1.0
Laval ,4151330220,7008490,48.0667,-.75,1.0,0.0,1.0
Le Havre ,4151330274,7008927,49.5,.1,2.0,0.0,1.0
Le Mans ,4151330282,7008494,48,.2,2.0,0.0,1.0
Lemberg ,4151330286,1033960,49.0167,7.3833,1.0,0.0,1.0
Le Puy ,4151330323,7008205,45.05,3.8833,2.0,0.0,1.0
Lille ,4151330448,7008461,50.65,3.0833,6.0,2.0,1.0
Limoges ,4151330452,7008410,45.8333,1.25,1.0,1.0,0.0
Lisieux ,4151330465,7008212,49.15,.2333,0.0,1.0,0.0
Lisle-sur-Tarn ,4151330471,4006432,43.8667,1.8,1.0,0.0,1.0
Loire ,4151330497,1034084,45.55,4.8,1.0,0.0,1.0
Lorette ,4151330530,1034110,45.5167,4.5833,0.0,1.0,0.0
Loury ,4151330554,1034127,48,2.0833,1.0,0.0,1.0
Lun¨¦ville ,4151330578,7009313,48.5833,6.5,3.0,2.0,1.0
Lyon ,4151330592,7008772,45.7667,4.8333,21.0,14.0,1.0
Landes ,4151330598,7002957,44,-.8667,0.0,1.0,0.0
Magny-en-Vexin ,4151360013,1034190,49.15,1.7833,1.0,0.0,1.0
Mane ,4151360059,4006851,43.9333,5.75,1.0,0.0,1.0
Mantes-la-Jolie ,4151360064,7008063,48.9833,1.7167,1.0,0.0,1.0
Marly ,4151360127,1034277,50.35,3.55,0.0,2.0,0.0
Marseilles ,4151360152,7008781,43.3,5.3667,8.0,7.0,1.0
Maubeuge ,4151360178,7009331,50.2833,3.9667,1.0,0.0,1.0
Mayenne ,4151360204,7008491,48.3,-.6167,1.0,0.0,1.0
Mazerolles-du-Raz¨¨s ,4151360213,4007036,43.138981,2.07148,1.0,0.0,1.0
Metz ,4151360282,7008418,49.1167,6.1833,7.0,1.0,1.0
Meung-sur-Loire ,4151360286,1034371,47.8333,1.7,1.0,0.0,1.0
Mirecourt ,4151360322,1034395,48.3,6.1333,1.0,0.0,1.0
Mons ,4151360364,1034426,43.6833,6.5333,0.0,1.0,0.0
Montaigu ,4151360369,1034439,46.9667,-1.3,0.0,1.0,0.0
Montb¨¦liard ,4151360384,7009347,47.5167,6.8,1.0,0.0,1.0
Montbrison ,4151360389,1034454,45.6167,4.0667,1.0,0.0,1.0
Montdidier ,4151360404,7009351,49.65,2.5833,1.0,0.0,1.0
Montfort-l'Amaury ,4151360420,7009356,48.7833,1.8167,1.0,0.0,1.0
Montpellier ,4151360478,7009369,43.6,3.8833,8.0,8.0,0.0
Morteau ,4151360538,7009379,47.05,6.5833,1.0,0.0,1.0
Moulins ,4151360554,7008198,46.5667,3.3333,6.0,4.0,1.0
Mulhouse ,4151360584,7012333,47.75,7.35,2.0,1.0,1.0
Nancy ,4151390005,7008412,48.7,6.2,19.0,11.0,1.0
Nantes ,4151390011,7008482,47.2333,-1.5833,2.0,1.0,1.0
Nesle ,4151390031,1034633,49.75,2.9167,0.0,1.0,0.0
Nice ,4151390067,7008773,43.7,7.2667,2.0,1.0,1.0
N_mes ,4151390073,7008371,43.8333,4.35,4.0,1.0,1.0
Nogent-le-Rotrou ,4151390088,1034676,48.3167,.8333,1.0,0.0,1.0
Normandy ,4151390110,7002886,49.126305,-0.074555,1.0,0.0,1.0
Noyon ,4151390131,7010580,49.5833,3,1.0,0.0,1.0
Orgelet-le-Bourget ,4151420043,1034748,46.5167,5.6167,1.0,0.0,1.0
Orl¨¦ans ,4151420054,7008337,47.9,1.9,7.0,1.0,1.0
Paris ,4151450026,7008038,48.8667,2.3333,307.0,483.0,0.0
Parthenay ,4151450028,1034809,46.65,-.2333,2.0,1.0,1.0
Perpignan ,4151450068,7008383,42.7,2.9,2.0,0.0,1.0
Pithiviers ,4151450124,1034868,48.1667,2.25,1.0,0.0,1.0
Plaisance ,4151450128,5000306,43.606361,0.04834,0.0,1.0,0.0
Poissy ,4151450159,7008066,48.9333,2.0333,0.0,1.0,0.0
Poitiers ,4151450160,7017418,46.5833,.3333,2.0,0.0,1.0
Poitou ,4151450161,7002891,45.118085,-0.020167,1.0,0.0,1.0
Pontarlier ,4151450176,7009439,46.9,6.3333,1.0,0.0,1.0
Puget-sur Argens ,4151450282,1034997,43.45,6.6833,1.0,0.0,1.0
Quimper ,4151480019,7008262,48,-4.1,1.0,1.0,0.0
Rheims ,4151510033,7011060,49.25,4.0333,4.0,0.0,1.0
Rennes ,4151510041,7008263,48.1,-1.6667,0.0,2.0,0.0
Rethel ,4151510046,7009464,49.5167,4.3667,1.0,0.0,1.0
Ribemont ,4151510062,1035081,49.8,3.4667,1.0,0.0,1.0
Rochefort ,4151510096,7009474,45.95,-.9667,1.0,1.0,0.0
Rocroi ,4151510112,7009475,49.9333,4.5167,1.0,0.0,1.0
Romenay ,4151510128,1035130,46.5,5.05,0.0,1.0,0.0
Rouen ,4151510159,7008929,49.4333,1.0833,16.0,6.0,1.0
Saint-Beno_t ,4151540068,1035265,48.6667,1.9167,1.0,0.0,1.0
Saint-Claude ,4151540103,7009615,46.3833,5.8667,1.0,1.0,0.0
Saint-Denis ,4151540116,7009706,48.95,2.3833,0.0,2.0,0.0
Sainte-Menehould ,4151540155,1035583,49.0833,4.9,1.0,0.0,1.0
Saint-Germain-en-Laye ,4151540226,7018796,48.8833,2.0667,1.0,3.0,0.0
Saint-Gilles-du-Gard ,4151540242,7008349,43.676762,4.42984,1.0,0.0,1.0
Saint-Hippolyte ,4151540255,1136805,47.3167,6.8167,2.0,0.0,1.0
Saint Jean-d'Ang¨¦ly ,4151540263,7009634,45.95,-.5167,1.0,0.0,1.0
Saint-Mand¨¦ ,4151540338,1035429,48.8333,2.4167,0.0,1.0,0.0
Saint-Mihiel ,4151540388,7009648,48.9,5.55,2.0,0.0,1.0
Saint-Omer ,4151540403,7011062,50.75,2.25,1.0,0.0,1.0
Saint Quentin ,4151540455,7010562,49.85,3.2833,1.0,1.0,0.0
Saverne ,4151540617,7009673,48.75,7.3667,1.0,0.0,1.0
Sceaux ,4151540628,7007998,48.7833,2.3,1.0,0.0,1.0
Sedan ,4151540640,7009674,49.7,4.95,2.0,0.0,1.0
Sens ,4151540672,7008255,48.2,3.3,1.0,0.0,1.0
S¨¨vres ,4151540700,7007999,48.8167,2.2167,0.0,4.0,0.0
Sissonne ,4151540724,1035731,49.5833,3.9,1.0,0.0,1.0
Strasbourg ,4151540794,7012346,48.5833,7.75,19.0,11.0,1.0
Somme ,4151540815,7003216,49.9167,2.5,1.0,0.0,1.0
Sarthe ,4151540817,7002986,48,.0833,1.0,0.0,1.0
Seine-et-Marne ,4151540820,7002973,48.5,3.0833,1.0,0.0,1.0
Toulon ,4151570112,7008794,43.1167,5.9167,5.0,0.0,1.0
Toulouse ,4151570114,7008441,43.6167,1.4333,10.0,11.0,0.0
Tourcoing ,4151570117,7009508,50.7333,3.1667,1.0,0.0,1.0
Tournon ,4151570122,1035897,45.0833,4.8167,1.0,1.0,0.0
Tours ,4151570128,7008323,47.3833,.7,5.0,8.0,0.0
Troyes ,4151570174,7008350,48.3,4.0833,15.0,2.0,1.0
Valenciennes ,4151630018,7008471,50.3667,3.5333,9.0,2.0,1.0
Valenton ,4151630022,1035976,48.75,2.4667,0.0,1.0,0.0
Varzy ,4151630067,7009714,47.35,3.3833,0.0,1.0,0.0
Vermenton ,4151630127,7008256,47.6667,3.7167,1.0,0.0,1.0
Vernon ,4151630135,7009720,49.0833,1.4833,1.0,0.0,1.0
Versailles ,4151630142,7008070,48.8,2.1333,6.0,10.0,0.0
Viarmes ,4151630168,1036091,49.1333,2.3667,1.0,0.0,1.0
Vic-sur-Seille ,4151630178,7009727,48.7833,6.5167,1.0,0.0,1.0
Villiers-sur-Marne ,4151630300,1036200,48.8333,2.5667,0.0,1.0,0.0
Vincennes ,4151630307,7009740,48.85,2.45,3.0,0.0,1.0
Chavagnes-en-Paillers ,4151750009,7030604,46.9,-1.25,1.0,0.0,1.0
Germany ,4180000000,7000084,51.5,10.5,12.0,3.0,1.0
Aachen ,4180000002,7004799,50.770833,6.105278,2.0,2.0,0.0
Altdorf ,4180000093,1038166,49.3875,11.357222,1.0,0.0,1.0
Altenburg ,4180000107,7012790,50.983333,12.45,1.0,0.0,1.0
Ansbach ,4180000188,7004459,49.3,10.583333,1.0,1.0,0.0
Arnstadt ,4180000210,7012792,50.833333,10.95,1.0,0.0,1.0
Augsburg ,4180000256,7004324,48.366667,10.883333,51.0,59.0,0.0
Baden-W¨¹rttemberg ,4180030000,7003692,47.95,9.9,1.0,0.0,1.0
Baden-Baden ,4180030042,7005172,48.75,8.25,0.0,1.0,0.0
Bad Kissingen ,4180030065,7012369,50.2,10.083333,1.0,0.0,1.0
Bad Mergentheim ,4180030085,7005181,49.4925,9.773611,1.0,0.0,1.0
Bad Schwalbach ,4180030116,7012959,50.133333,8.066667,0.0,1.0,0.0
Bamberg ,4180030154,7004325,49.866667,10.866667,9.0,5.0,1.0
Barby ,4180030159,1036414,51.966667,11.883333,0.0,1.0,0.0
Bayreuth ,4180030199,7004326,49.45,11.5833,1.0,3.0,0.0
Benediktbeuern ,4180030241,5001774,47.7,11.4,1.0,0.0,1.0
Berg ,4180030259,7012307,47.966667,11.35,1.0,0.0,1.0
Berlin ,4180030287,7003712,52.516667,13.4,16.0,33.0,0.0
Berne ,4180030294,1038491,53.1833,8.4833,0.0,1.0,0.0
Biberach an der Ri_ ,4180030323,7031763,48.1,9.8,2.0,0.0,1.0
Bielefeld ,4180030331,7005978,52.033333,8.533333,0.0,1.0,0.0
Bocholt ,4180030407,1038566,51.833333,6.6,0.0,1.0,0.0
Bonn ,4180030447,7005090,50.733333,7.1,1.0,0.0,1.0
Boxberg ,4180030493,1038612,49.481389,9.640278,1.0,0.0,1.0
Brakel ,4180030500,7012409,51.716667,9.183333,1.0,1.0,0.0
Brandenburg ,4180030506,7004462,52.416667,12.55,1.0,0.0,1.0
Brunswick ,4180030517,7004434,52.266667,10.533333,1.0,4.0,0.0
Breisach am Rhein ,4180030529,7005968,48.033333,7.583333,0.0,1.0,0.0
Bremen ,4180030543,7005286,53.083333,8.8,1.0,0.0,1.0
Br¨¹nn ,4180030590,1036493,50.45,101.0833,0.0,1.0,0.0
Burgau ,4180030642,1038691,48.433333,10.4,1.0,0.0,1.0
Burghausen ,4180030651,7004328,48.166667,12.833333,2.0,0.0,1.0
Chemnitz ,4180060023,7005951,50.833333,12.916667,1.0,0.0,1.0
Clemenswerth ,4180060031,4002712,53.383216,9.86206,0.0,1.0,0.0
Coburg ,4180060035,7004330,50.25,10.966667,2.0,0.0,1.0
Cologne ,4180060061,7004446,50.933333,6.95,10.0,6.0,1.0
Dachau ,4180090003,7004632,48.266667,11.433333,1.0,0.0,1.0
Darmstadt ,4180090037,7004428,49.870556,8.649444,1.0,4.0,0.0
Deggendorf ,4180090053,7004404,48.833333,12.966667,1.0,0.0,1.0
Delmenhorst ,4180090064,7005284,53.05,8.616667,1.0,0.0,1.0
Denkendorf ,4180090069,7004612,48.933333,11.45,0.0,1.0,0.0
Dillingen ,4180090121,1038818,49.35,6.733333,1.0,0.0,1.0
Dillingen an der Donau ,4180090122,7012427,48.566667,10.483333,1.0,0.0,1.0
Dippoldiswalde ,4180090134,1036609,50.883333,13.666667,1.0,1.0,0.0
Dithmarschen ,4180090139,1111963,53.9167,9.25,1.0,0.0,1.0
Donaueschingen ,4180090165,7005175,47.95,8.5,0.0,1.0,0.0
Donaustauf ,4180090167,7004575,49.033333,12.216667,0.0,1.0,0.0
Dresden ,4180090203,7004455,51.05,13.75,21.0,36.0,0.0
Dusseldorf ,4180090230,7004443,51.216667,6.766667,2.0,3.0,0.0
D¨¹sseldorf district ,4180090235,1003123,51.25,7,1.0,0.0,1.0
Eichst_tt ,4180120069,7004613,48.883333,11.183333,3.0,1.0,1.0
Eisenberg ,4180120087,1036648,50.966667,11.9,1.0,0.0,1.0
Eisleben ,4180120093,7012806,51.5333,11.55,1.0,0.0,1.0
Emden ,4180120137,7005300,53.366667,7.216667,5.0,2.0,1.0
Erfurt ,4180120177,7024031,50.983333,11.033333,1.0,1.0,0.0
Erlangen ,4180120189,7004332,49.589722,11.003889,1.0,2.0,0.0
Frankenthal ,4180150092,7012458,49.537222,8.355,1.0,1.0,0.0
Frankfurt am Main ,4180150093,7005293,50.116667,8.683333,17.0,32.0,0.0
Frankfurt an der Oder ,4180150094,7005972,52.35,14.55,2.0,1.0,1.0
Freiburg im Breisgau ,4180150114,7004423,48,7.85,3.0,0.0,1.0
Freising ,4180150122,7013338,48.4,11.733333,0.0,1.0,0.0
Friedrichstadt ,4180150158,1039143,54.366667,9.083333,1.0,1.0,0.0
Fulda ,4180150182,7005294,50.55,9.666667,1.0,1.0,0.0
Geisa ,4180180048,1036764,50.716667,9.966667,1.0,0.0,1.0
Goslar ,4180180206,7005630,51.9,10.433333,1.0,0.0,1.0
Gotha ,4180180211,7005938,50.95,10.716667,0.0,1.0,0.0
Greifswald ,4180180256,7004725,54.1,13.383333,1.0,0.0,1.0
Gr_tzingen ,4180180372,4004470,48.616667,9.266667,1.0,0.0,1.0
Gr¨¹nstadt ,4180180388,1039309,49.569167,8.168056,1.0,0.0,1.0
Haina ,4180210032,7012487,51.033333,8.966667,1.0,0.0,1.0
Hamburg ,4180210056,7005289,53.55,10,16.0,15.0,1.0
Hammelburg ,4180210063,1039453,50.116667,9.9,1.0,0.0,1.0
Hanau ,4180210066,7005295,50.133333,8.916667,0.0,2.0,0.0
Hanover ,4180210070,7013260,52.366667,9.716667,2.0,1.0,1.0
Havelberg ,4180210122,7012319,52.816667,12.083333,1.0,0.0,1.0
Heidelberg ,4180210143,7005177,49.416667,8.7,2.0,2.0,0.0
Heinsberg ,4180210171,7005162,51.066667,6.083333,1.0,0.0,1.0
Helmstedt ,4180210190,7005247,52.233333,11,1.0,0.0,1.0
Herford ,4180210221,7012503,52.133333,8.683333,1.0,0.0,1.0
Herrnhut ,4180210239,1036934,51.016667,14.75,0.0,1.0,0.0
Hessen ,4180210261,1036938,52.016667,10.783333,1.0,0.0,1.0
Hildburghausen ,4180210280,1036943,50.416667,10.75,0.0,1.0,0.0
Hildesheim ,4180210283,7005248,52.15,9.966667,1.0,2.0,0.0
Hirschfeld ,4180210308,1036949,51.383333,13.616667,1.0,0.0,1.0
Hohenlohe ,4180210363,6002574,48.769027,12.374413,1.0,0.0,1.0
Horb am Neckar ,4180210436,7012512,48.433333,8.683333,1.0,0.0,1.0
H¨¹fingen ,4180210469,7012489,47.916667,8.483333,1.0,0.0,1.0
Idstein ,4180240009,7006084,50.233333,8.266667,0.0,1.0,0.0
Ilbenstadt ,4180240022,7006092,50.283333,8.8,0.0,1.0,0.0
Ingolstadt ,4180240044,7017035,48.766667,11.433333,0.0,1.0,0.0
Iserlohn ,4180240054,7006088,51.366667,7.7,1.0,0.0,1.0
Itzehoe ,4180240062,7006089,53.916667,9.516667,1.0,0.0,1.0
Jachenau ,4180270001,1039757,47.6,11.433333,1.0,0.0,1.0
Jena ,4180270013,7005973,50.933333,11.583333,1.0,0.0,1.0
Joachimsthal ,4180270025,1037007,52.966667,13.75,1.0,0.0,1.0
J¨¹lich ,4180270041,7012517,50.933333,6.366667,1.0,0.0,1.0
Kalkar ,4180300012,7004986,51.733333,6.3,1.0,0.0,1.0
Karlsruhe ,4180300045,7004424,49.004722,8.385833,1.0,0.0,1.0
Kassel ,4180300053,7004431,51.316667,9.5,0.0,4.0,0.0
Kaufbeuren ,4180300065,7012526,47.883333,10.616667,1.0,0.0,1.0
Kempen ,4180300087,7005171,51.366667,6.416667,1.0,0.0,1.0
Kempten ,4180300090,7012530,47.716667,10.316667,3.0,2.0,1.0
Cleves ,4180300184,7012313,51.783333,6.15,2.0,0.0,1.0
K_nigsberg in Bayern ,4180300229,7012518,50.083333,10.583333,1.0,0.0,1.0
Konstanz ,4180300249,7005174,47.666667,9.183333,2.0,1.0,1.0
Kronach ,4180300297,7012543,50.233333,11.316667,1.0,0.0,1.0
Kulmbach ,4180300328,1039952,50.1,11.45,1.0,0.0,1.0
K_ln district ,4180300352,1003171,50.9333,6.6667,0.0,1.0,0.0
Lower Saxony ,4180330000,7003676,52.6667,9,1.0,0.0,1.0
Landau ,4180330025,1040006,48.683333,12.683333,1.0,0.0,1.0
Landsberg ,4180330032,1037156,51.516667,12.166667,1.0,0.0,1.0
Landshut ,4180330034,7004414,48.533333,12.15,0.0,1.0,0.0
Langenargen ,4180330043,7012560,47.6,9.55,1.0,0.0,1.0
Laufen ,4180330098,7012566,47.95,12.933333,1.0,0.0,1.0
Lauingen ,4180330101,7012568,48.566667,10.433333,1.0,1.0,0.0
Leipzig ,4180330144,7012329,51.3333,12.4167,5.0,12.0,0.0
Leutkirch ,4180330188,1040109,47.825,10.016667,1.0,0.0,1.0
Lippstadt ,4180330247,7012582,51.666667,8.35,2.0,0.0,1.0
Lubeck ,4180330314,7012327,53.866667,10.7,15.0,4.0,1.0
Ludwigslust ,4180330333,7004798,53.316667,11.5,0.0,2.0,0.0
Magdeburg ,4180360005,7004456,52.166667,11.666667,1.0,0.0,1.0
Mainburg ,4180360016,1040222,48.65,11.783333,1.0,0.0,1.0
Mainz ,4180360021,7004449,50,8.271111,0.0,1.0,0.0
Mainz ,4180360022,7017990,47.833333,11.966667,1.0,1.0,0.0
Mannheim ,4180360036,7005179,49.488333,8.464722,1.0,7.0,0.0
Mansfeld ,4180360037,7012840,51.583333,11.466667,1.0,0.0,1.0
Marburg ,4180360043,7012330,50.816667,8.766667,1.0,0.0,1.0
Meckenheim ,4180360107,1040282,50.633333,7.016667,1.0,0.0,1.0
Meersburg ,4180360119,7012597,47.7,9.266667,1.0,1.0,0.0
Meissen ,4180360132,7012844,51.1667,13.4167,1.0,4.0,0.0
Memmingen ,4180360144,7012598,47.983333,10.166667,4.0,1.0,1.0
Mengen ,4180360147,7012599,48.05,9.333333,1.0,0.0,1.0
Merseburg ,4180360160,7012845,51.366667,12,2.0,2.0,0.0
Messkirch ,4180360168,1040324,48,9.1167,0.0,1.0,0.0
Metzingen ,4180360180,1040334,48.533333,9.266667,1.0,0.0,1.0
Mindelheim ,4180360204,7012332,48.05,10.483333,2.0,1.0,1.0
Minden ,4180360205,7005099,52.283333,8.916667,1.0,0.0,1.0
Mosbach ,4180360262,1040375,49.353889,9.142778,0.0,1.0,0.0
M¨¹hlheim ,4180360284,1040199,50.116667,8.833333,1.0,0.0,1.0
Munich ,4180360300,7004333,48.15,11.583333,17.0,43.0,0.0
Munster ,4180360310,1040379,52.983333,10.083333,0.0,1.0,0.0
M¨¹nster ,4180360311,7004445,51.966667,7.633333,4.0,2.0,1.0
Neustadt ,4180390163,1037375,50.733333,11.75,1.0,0.0,1.0
Neuwied ,4180390179,7005100,50.433333,7.466667,0.0,1.0,0.0
Nordhausen ,4180390264,7012851,51.516667,10.8,1.0,0.0,1.0
N_rdlingen ,4180390268,7012334,48.85,10.5,2.0,1.0,1.0
N¨¹rburg ,4180390284,1040387,50.333333,6.95,12.0,11.0,1.0
Nuremberg ,4180390285,7004334,49.447778,11.068333,59.0,59.0,0.0
Ochsenhausen ,4180420080,7005182,48.066667,9.95,1.0,0.0,1.0
Oldenburg ,4180420126,7004439,53,8,1.0,0.0,1.0
Oldenburg ,4180420127,1003813,53.1333,8.2167,1.0,0.0,1.0
Osnabr¨¹ck ,4180420162,7005252,52.266667,8.05,2.0,0.0,1.0
Osterburg ,4180420171,1037438,52.783333,11.766667,1.0,0.0,1.0
Paderborn ,4180450001,7005101,51.716667,8.766667,3.0,1.0,1.0
Passau ,4180450019,7004407,48.583333,13.483333,0.0,3.0,0.0
Peine ,4180450035,7005624,52.316667,10.233333,1.0,0.0,1.0
Pfronten ,4180450076,1040733,47.583333,10.55,1.0,0.0,1.0
Pfullendorf ,4180450078,1040735,47.916667,9.25,1.0,0.0,1.0
Pirna ,4180450090,7012339,50.966667,13.933333,1.0,0.0,1.0
Polling ,4180450123,7004705,47.816667,11.133333,0.0,1.0,0.0
Potsdam ,4180450142,7004463,52.4,13.066667,0.0,1.0,0.0
Prenzlau ,4180450153,1037511,53.316667,13.866667,1.0,0.0,1.0
Quedlinburg ,4180480003,7012857,51.783333,11.15,1.0,0.0,1.0
Radolfzell ,4180510009,1040809,47.733333,8.966667,1.0,0.0,1.0
Ravensburg ,4180510055,7005184,47.783333,9.616667,1.0,0.0,1.0
Regensburg ,4180510066,7013496,49.015,12.095556,3.0,5.0,0.0
Rehna ,4180510078,1037573,53.783333,11.05,1.0,0.0,1.0
Rheinfelden ,4180510142,1040896,47.566667,7.8,1.0,0.0,1.0
Riedlingen ,4180510166,1040910,48.15,9.466667,1.0,0.0,1.0
Rosenheim ,4180510236,7004690,47.85,12.133333,1.0,0.0,1.0
Rostock ,4180510253,7004717,54.083333,12.133333,1.0,0.0,1.0
Roth ,4180510259,7012681,49.245,11.091111,1.0,0.0,1.0
Rott am Inn ,4180510271,7004689,47.916667,12.083333,1.0,0.0,1.0
Rottenbuch ,4180510274,7012682,47.733333,10.966667,1.0,0.0,1.0
Rottenburg ,4180510275,7012684,48.466667,8.933333,1.0,0.0,1.0
Rottweil ,4180510282,7012685,48.166667,8.616667,0.0,1.0,0.0
Rudolstadt ,4180510291,7012862,50.716667,11.333333,2.0,3.0,0.0
Saarbr¨¹cken ,4180540010,7004454,49.233333,7,0.0,1.0,0.0
Saxony ,4180540015,7003686,50.928181,13.45681,1.0,0.0,1.0
Salzdahlum ,4180540030,4009872,52.2,10.583333,0.0,1.0,0.0
Sangerhausen ,4180540051,1037641,51.466667,11.3,2.0,0.0,1.0
Sankt Andreasberg ,4180540053,7012688,51.716667,10.516667,1.0,0.0,1.0
Schleiz ,4180540143,1037680,50.583333,11.816667,2.0,0.0,1.0
Schleswig ,4180540147,7012700,54.516667,9.55,1.0,0.0,1.0
Sch_nerlinde ,4180540217,1037656,52.65,13.45,1.0,0.0,1.0
Sch_nthal ,4180540234,1041064,49.35,12.6,0.0,1.0,0.0
Schw_bisch Gm¨¹nd ,4180540269,7012707,48.8,9.783333,2.0,2.0,0.0
Schw_bisch Hall ,4180540270,7012708,49.105833,9.734167,1.0,1.0,0.0
Schweinfurt ,4180540310,7004336,50.05,10.233333,1.0,0.0,1.0
Seligenstadt ,4180540363,4010301,50.05,8.983333,1.0,0.0,1.0
Siegen ,4180540391,7012712,50.866667,8.033333,1.0,0.0,1.0
Soest ,4180540428,7005105,51.583333,8.116667,1.0,1.0,0.0
Solingen ,4180540432,7004940,51.183333,7.083333,1.0,0.0,1.0
Sonthofen ,4180540447,1041257,47.516667,10.283333,1.0,0.0,1.0
Speyer ,4180540465,7012341,49.329722,8.427778,1.0,0.0,1.0
Spremberg ,4180540470,1037757,51.55,14.366667,1.0,0.0,1.0
Stendal ,4180540547,7012875,52.6,11.85,1.0,0.0,1.0
Stralsund ,4180540583,7004718,54.3,13.1,3.0,1.0,1.0
Straubing ,4180540587,7004413,48.883333,12.566667,0.0,1.0,0.0
Stuttgart ,4180540614,7004425,48.766667,9.183333,1.0,3.0,0.0
Sulzbach ,4180540632,7012338,49.3,7.066667,0.0,1.0,0.0
Thuringia ,4180570000,7003689,51,11,2.0,0.0,1.0
Tegernsee ,4180570024,7004693,47.716667,11.766667,1.0,0.0,1.0
T_nning ,4180570103,7012734,54.316667,8.95,1.0,0.0,1.0
T_pen ,4180570106,1041378,50.383333,11.866667,1.0,0.0,1.0
Trier ,4180570142,7004447,49.75,6.633333,2.0,2.0,0.0
T¨¹rkheim ,4180570163,1041381,48.066667,10.633333,1.0,0.0,1.0
_berlingen ,4180600001,7012359,47.766667,9.166667,2.0,0.0,1.0
Ulm ,4180600027,7005187,48.4,10,3.0,5.0,0.0
Veringenstadt ,4180630029,1041541,48.183333,9.216667,1.0,0.0,1.0
Wabern ,4180660003,1041603,51.1,9.35,1.0,0.0,1.0
Waldkirchen ,4180660039,1041632,48.733333,13.6,1.0,0.0,1.0
Wallerstein ,4180660057,7012757,48.883333,10.466667,2.0,0.0,1.0
Warburg ,4180660088,7012758,51.5,9.166667,1.0,1.0,0.0
Weilheim ,4180660158,7012763,47.833333,11.15,5.0,2.0,1.0
Weimar ,4180660161,1041715,51.366667,9.4,3.0,2.0,1.0
Weimar ,4180660162,7012886,50.983333,11.316667,0.0,3.0,0.0
Weissenhorn ,4180660179,7018688,48.3,10.1667,2.0,0.0,1.0
Weissensee ,4180660181,1037950,51.2,11.0833,1.0,0.0,1.0
Wesel ,4180660256,7005168,51.666667,6.616667,4.0,1.0,1.0
Wessobrunn ,4180660261,7004708,47.883333,11.033333,4.0,1.0,1.0
Wetzlar ,4180660296,7012774,50.55,8.5,1.0,0.0,1.0
Wiesensteig ,4180660324,7012777,48.55,9.633333,3.0,0.0,1.0
Wismar ,4180660391,7004719,53.9,11.466667,1.0,0.0,1.0
Wittenberg ,4180660395,7012349,51.8833,12.65,2.0,0.0,1.0
Wittichenau ,4180660399,1038012,51.383333,14.25,1.0,0.0,1.0
Wolfenb¨¹ttel ,4180660417,7005253,52.166667,10.55,0.0,2.0,0.0
Worms ,4180660438,7005108,49.635556,8.359722,3.0,0.0,1.0
Wuppertal ,4180660462,7004943,51.266667,7.183333,2.0,0.0,1.0
W¨¹rzburg ,4180660468,7004335,49.787778,9.936111,2.0,7.0,0.0
Xanten ,4180690000,7004980,50.2333,6.45,0.0,1.0,0.0
Zeitz ,4180750022,7012351,51.05,12.15,1.0,0.0,1.0
Zerbst ,4180750031,7012892,51.966667,12.083333,1.0,0.0,1.0
Zweibr¨¹cken ,4180750079,7012352,49.25,7.366667,0.0,1.0,0.0
Imgoldingen ,4180750095,7029630,48.033,9.733,1.0,0.0,1.0
Athens ,4181000086,7001393,37.983333,23.733333,0.0,2.0,0.0
Kr¨ªti region ,4181060000,7012056,35.1667,25,1.0,0.0,1.0
Kir¨¢s Vr¨ªsi ,4181300070,5004291,37.917508,23.006031,1.0,0.0,1.0
M¨ªlos island ,4181360046,7010922,36.675556,24.447778,1.0,0.0,1.0
Pella ,4181450026,7011026,40.76,22.519167,1.0,0.0,1.0
S¨¢mos ,4181540003,1042201,37.757222,26.976944,1.0,0.0,1.0
Budapest ,4210030029,7006280,47.5,19.05,2.0,3.0,0.0
Eger ,4210120002,7010471,47.8833,20.4667,0.0,1.0,0.0
Szigetv¨¢r ,4210540036,4010962,46.0167,17.8333,0.0,1.0,0.0
Zala ,4210750000,1000481,46.75,16.8333,0.0,1.0,0.0
Republic of Ireland ,4240000000,1000078,53,-8,5.0,3.0,1.0
Bruff ,4240030078,1042660,52.4833,-8.55,0.0,1.0,0.0
Cork ,4240060079,7007168,51.9,-8.4667,2.0,0.0,1.0
Dublin ,4240090025,7001306,53.3333,-6.25,18.0,10.0,1.0
Dundalk ,4240090029,7006958,54.0167,-6.4167,1.0,0.0,1.0
Kildare ,4240300014,7006909,53.1667,-6.9167,1.0,0.0,1.0
Kilkenny ,4240300022,7007184,52.65,-7.25,1.0,0.0,1.0
Limerick ,4240330012,7006679,52.6667,-8.6333,1.0,0.0,1.0
Louth ,4240330021,7006982,53.95,-6.55,1.0,0.0,1.0
County Meath ,4240360034,7003491,53.5833,-6.6667,1.0,0.0,1.0
Thomastown ,4240570005,1043029,52.5167,-7.1333,1.0,0.0,1.0
Waterford ,4240660000,7006731,52.25,-7.1,2.0,0.0,1.0
Westport ,4240660003,1043053,53.8,-9.5333,0.0,1.0,0.0
Wexford ,4240660004,1043054,52.3333,-6.45,1.0,0.0,1.0
Wicklow ,4240660008,1043057,52.9833,-6.05,0.0,1.0,0.0
Italy ,4243000000,1000080,42.8333,12.8333,12.0,8.0,1.0
Apulia ,4243000002,7010380,41.25,16.25,0.0,1.0,0.0
Ala ,4243000074,7005506,45.75,11,1.0,0.0,1.0
Alagna Valsesia ,4243000077,1043140,45.85,7.933333,2.0,0.0,1.0
Alatri ,4243000080,7006674,41.716667,13.35,0.0,1.0,0.0
South Tyrol ,4243000146,7030436,41.29254,12.573465,1.0,1.0,0.0
Alzano Lombardo ,4243000151,7005810,45.733333,9.716667,1.0,0.0,1.0
Amantea ,4243000155,1043201,39.133333,16.066667,1.0,0.0,1.0
Ampezzo ,4243000163,1043207,46.413889,12.794722,1.0,0.0,1.0
Ancona ,4243000167,7003980,43.633333,13.5,3.0,1.0,1.0
Andorno Micca ,4243000170,1043214,45.616667,8.05,1.0,0.0,1.0
Antrodoco ,4243000193,7006737,42.416667,13.083333,1.0,0.0,1.0
Anzio ,4243000198,7015535,41.45,12.616667,1.0,0.0,1.0
Arezzo ,4243000242,7006072,43.416667,11.883333,10.0,6.0,1.0
Argenta ,4243000244,7004891,44.616667,11.833333,2.0,0.0,1.0
Arona ,4243000264,7005655,45.766667,8.566667,1.0,0.0,1.0
Arpino ,4243000267,7006688,41.65,13.6,2.0,0.0,1.0
Ascoli Piceno ,4243000291,7004025,42.85,13.566667,0.0,2.0,0.0
Assisi ,4243000300,7005119,43.066667,12.616667,2.0,1.0,1.0
Asti ,4243000303,7005610,44.9,8.2,1.0,0.0,1.0
Badia Calavena ,4243030008,1043357,45.566667,11.15,1.0,0.0,1.0
Bagnacavallo ,4243030015,7004993,44.416667,12,1.0,0.0,1.0
Bagnoli Irpino ,4243030031,7003088,40.833333,15.066667,1.0,0.0,1.0
Baia ,4243030039,7004516,40.816667,14.066667,0.0,1.0,0.0
Barletta ,4243030089,7004105,41.316667,16.283333,0.0,1.0,0.0
Bassano del Grappa ,4243030104,7003261,45.766667,11.733333,7.0,5.0,1.0
Bassiano ,4243030107,5002315,41.55,13.033333,1.0,0.0,1.0
Belluno ,4243030134,7003325,46.145,12.221389,8.0,2.0,1.0
Belvedere Ostrense ,4243030141,1043469,43.566667,13.15,1.0,0.0,1.0
Bergamo ,4243030151,7005025,45.683333,9.716667,12.0,11.0,1.0
Bevagna ,4243030166,7008876,42.933333,12.6,1.0,0.0,1.0
Bisceglie ,4243030194,7004110,41.233333,16.5,1.0,0.0,1.0
Bitonto ,4243030199,7004115,41.1,16.683333,1.0,2.0,0.0
Bologna ,4243030226,7004847,44.483333,11.333333,122.0,94.0,1.0
Bolzano ,4243030234,7004967,46.516667,11.366667,1.0,1.0,0.0
Borgo a Buggiano ,4243030262,4001692,43.8833,104.6667,1.0,0.0,1.0
Bracciano ,4243030328,7007170,42.1,12.166667,0.0,1.0,0.0
Brescia ,4243030344,7005764,45.55,10.25,13.0,13.0,0.0
Brindisi ,4243030356,7004094,40.633333,17.933333,1.0,0.0,1.0
Broni ,4243030362,1043648,45.066667,9.266667,0.0,1.0,0.0
Budrio ,4243030387,7004872,44.533333,11.533333,1.0,0.0,1.0
Burgusio ,4243030398,7015675,46.7,10.516667,1.0,0.0,1.0
Busto Arsizio ,4243030413,7006048,45.616667,8.85,2.0,0.0,1.0
Barra ,4243030419,7010620,40.8333,14.3167,0.0,1.0,0.0
Bergamo province ,4243030423,7005023,45.833333,9.8,1.0,0.0,1.0
Calabria ,4243060000,7007850,39,16.5,0.0,1.0,0.0
Cagli ,4243060016,7003985,43.55,12.65,1.0,0.0,1.0
Caldiero ,4243060047,1043735,45.4,11.1833,0.0,1.0,0.0
Camerano ,4243060081,7007558,43.533333,13.55,1.0,0.0,1.0
Camerino ,4243060083,7004016,43.133333,13.066667,2.0,1.0,1.0
Canda ,4243060152,1043814,45.05,11.5,1.0,0.0,1.0
Canino ,4243060166,7006772,42.466667,11.75,1.0,0.0,1.0
Cantiano ,4243060181,7008887,43.466667,12.633333,1.0,0.0,1.0
Caprese Michelangelo ,4243060212,7006116,43.65,11.983333,1.0,0.0,1.0
Capua ,4243060219,7004529,41.1,14.2,1.0,0.0,1.0
Caravaggio ,4243060229,7005840,45.5,9.633333,4.0,0.0,1.0
Caresana ,4243060244,1043885,45.216667,8.5,1.0,0.0,1.0
Carona ,4243060264,7005793,46.016667,9.783333,2.0,0.0,1.0
Carpi ,4243060274,7004950,44.783333,10.883333,3.0,2.0,1.0
Carrara ,4243060281,7006077,44.083333,10.1,5.0,2.0,1.0
Casale Monferrato ,4243060304,7003924,45.133333,8.45,0.0,1.0,0.0
Casalmaggiore ,4243060309,7005878,44.983333,10.433333,0.0,1.0,0.0
Castel Bolognese ,4243060369,7004997,44.316667,11.8,1.0,0.0,1.0
Castel del Piano ,4243060381,1043996,42.883333,11.533333,2.0,1.0,1.0
Castelfranco Veneto ,4243060399,7003298,45.666667,11.916667,1.0,0.0,1.0
Castel Gandolfo ,4243060401,7007012,41.75,12.65,0.0,2.0,0.0
Castellammare di Stabia ,4243060410,7015639,40.7,14.483333,1.0,0.0,1.0
Castelli ,4243060425,7004197,42.483333,13.716667,1.0,1.0,0.0
Castello di Belcaro ,4243060431,5003024,46.283333,11.433333,0.0,1.0,0.0
Castelnuovo Berardenga ,4243060451,7006312,43.35,11.5,1.0,0.0,1.0
Castelnuovo di Garfagnana ,4243060455,1044058,44.1,10.4,1.0,0.0,1.0
Castel San Felice ,4243060467,5003078,42.75,12.833333,1.0,0.0,1.0
Castel San Giovanni ,4243060470,1043988,45.066667,9.433333,1.0,0.0,1.0
Castiglione d'Orcia ,4243060500,7007728,43,11.616667,1.0,0.0,1.0
Cattolica ,4243060528,1044106,43.966667,12.733333,1.0,0.0,1.0
Cavalese ,4243060533,7005451,46.283333,11.45,5.0,3.0,1.0
Cefal¨² ,4243060555,7003931,38.033333,14.016667,1.0,1.0,0.0
Cento ,4243060577,7004900,44.716667,11.283333,6.0,2.0,1.0
Cerano ,4243060584,1044149,45.416667,8.783333,1.0,0.0,1.0
Cesena ,4243060634,7004922,44.143333,12.249722,3.0,2.0,1.0
Chioggia ,4243060677,7003037,45.225556,12.288889,1.0,0.0,1.0
Cittadella ,4243060733,7003101,45.65,11.783333,1.0,0.0,1.0
Citt¨¤ della Pieve ,4243060734,7005066,42.95,12,1.0,0.0,1.0
Citt¨¤ di Castello ,4243060735,7005039,43.45,12.233333,4.0,0.0,1.0
Cividale del Friuli ,4243060744,7005552,46.093056,13.4275,1.0,1.0,0.0
Cles ,4243060766,1044294,46.366667,11.033333,2.0,0.0,1.0
Clusone ,4243060768,7005814,45.883333,9.95,3.0,1.0,1.0
Colle di Val d'Elsa ,4243060801,7006328,43.416667,11.116667,3.0,0.0,1.0
Como ,4243060843,7005851,45.783333,9.083333,4.0,1.0,1.0
Comunanza ,4243060846,1044351,42.95,13.416667,1.0,0.0,1.0
Concordia Sagittaria ,4243060849,7003353,45.759444,12.840556,1.0,0.0,1.0
Conegliano ,4243060854,7003299,45.890556,12.2925,1.0,1.0,0.0
Conversano ,4243060865,7004138,40.966667,17.116667,0.0,1.0,0.0
Corfinio ,4243060881,7009534,40.733333,15.266667,1.0,0.0,1.0
Cornedo Vicentino ,4243060894,7003200,45.616667,11.333333,1.0,0.0,1.0
Correggio ,4243060900,7005027,44.766667,10.783333,1.0,1.0,0.0
Cortona ,4243060917,7006120,43.266667,11.983333,5.0,1.0,1.0
Crema ,4243060943,7005874,45.366667,9.683333,2.0,2.0,0.0
Cremona ,4243060945,7005868,45.116667,10.033333,12.0,10.0,1.0
Crevalcore ,4243060952,1044428,44.716667,11.15,1.0,0.0,1.0
Cuggiono ,4243060968,1044440,45.516667,8.816667,1.0,0.0,1.0
Cupramontana ,4243060978,1044447,43.45,13.116667,0.0,1.0,0.0
Como province ,4243061000,7005852,45.983333,9.216667,1.0,0.0,1.0
Casatico ,4243061010,7032169,44.15555,10.318318,1.0,0.0,1.0
Este ,4243120031,7003070,45.233333,11.65,3.0,0.0,1.0
Fabriano ,4243150002,7004004,43.333333,12.9,3.0,2.0,1.0
Faenza ,4243150007,7004995,44.283333,11.883333,3.0,3.0,0.0
Fano ,4243150026,7003987,43.833333,13.016667,3.0,2.0,1.0
Feltre ,4243150042,7003331,46.016667,11.9,2.0,1.0,1.0
Fermo ,4243150049,7004029,43.15,13.716667,0.0,1.0,0.0
Ferrara ,4243150055,7004264,44.833333,11.583333,15.0,17.0,0.0
Fiesole ,4243150070,7006141,43.8,11.283333,5.0,0.0,1.0
Fiorano Modenese ,4243150087,1044612,44.533333,10.816667,1.0,0.0,1.0
Florence ,4243150091,7000457,43.766667,11.25,172.0,164.0,1.0
Foligno ,4243150116,7005040,42.95,12.7,1.0,1.0,0.0
Fondi ,4243150121,7006712,41.35,13.416667,1.0,0.0,1.0
Forl¨¬ ,4243150147,7004912,44.223611,12.052778,3.0,3.0,0.0
Formia ,4243150151,7006711,41.25,13.616667,0.0,1.0,0.0
Formigine ,4243150153,1044667,44.566667,10.85,2.0,0.0,1.0
Fossombrone ,4243150175,7003988,43.683333,12.8,1.0,1.0,0.0
Frascati ,4243150189,7007013,41.8,12.683333,0.0,2.0,0.0
Friuli ,4243150204,7008895,37.674105,13.237895,1.0,0.0,1.0
Fontignano ,4243150222,7029470,43.033333,12.183333,0.0,1.0,0.0
Gaeta ,4243180005,7006713,41.2,13.583333,3.0,1.0,1.0
Gaiole in Chianti ,4243180014,1044730,43.466667,11.433333,1.0,0.0,1.0
Gallipoli ,4243180032,7004089,40.055556,17.976389,1.0,1.0,0.0
Gazzuolo ,4243180080,1044782,45.066667,10.583333,0.0,1.0,0.0
Genoa ,4243180088,7008546,44.416667,8.95,50.0,41.0,1.0
Giovinazzo ,4243180137,7004142,41.183333,16.666667,1.0,0.0,1.0
Giuliana ,4243180141,7003843,37.666667,13.233333,1.0,0.0,1.0
Gravina in Puglia ,4243180195,7003864,40.816667,16.416667,1.0,0.0,1.0
Gualdo Tadino ,4243180233,7005046,43.233333,12.783333,1.0,1.0,0.0
Guastalla ,4243180242,7005028,44.916667,10.65,0.0,1.0,0.0
Gubbio ,4243180243,7005048,43.35,12.583333,3.0,4.0,0.0
Genova province ,4243180251,7003142,44.5,9.066667,2.0,0.0,1.0
Imola ,4243240014,7004864,44.35,11.7,1.0,0.0,1.0
Ispica ,4243240052,1044971,36.783333,14.916667,0.0,1.0,0.0
Jesi ,4243270000,7004002,43.516667,13.233333,1.0,0.0,1.0
Lazio ,4243330000,7003080,42,14.5,0.0,1.0,0.0
Lombardy ,4243330002,7003237,45.6667,9.5,6.0,1.0,1.0
Laino Borgo ,4243330020,1045003,39.95,15.983333,1.0,0.0,1.0
Lanciano ,4243330032,7004161,42.233333,14.383333,1.0,0.0,1.0
Lanuvio ,4243330039,7006708,41.666667,12.7,1.0,0.0,1.0
L'Aquila ,4243330045,7004067,42.366667,13.366667,1.0,1.0,0.0
Lecce ,4243330090,7004090,40.383333,18.183333,2.0,2.0,0.0
Lendinara ,4243330101,1045059,45.083333,11.6,0.0,2.0,0.0
Leonessa ,4243330106,1045064,42.566667,12.966667,1.0,0.0,1.0
Livorno ,4243330160,7006074,43.55,10.316667,1.0,3.0,0.0
Lodi ,4243330174,7006011,45.316667,9.5,2.0,1.0,1.0
Loreto ,4243330195,7003983,43.433333,13.6,0.0,2.0,0.0
Lucca ,4243330206,7006076,43.8333,10.2167,12.0,10.0,1.0
Luino ,4243330218,7006043,46,8.733333,1.0,0.0,1.0
Marches ,4243360000,7003240,43.5,13.25,0.0,1.0,0.0
Macerata ,4243360003,7004018,43.3,13.45,0.0,1.0,0.0
Mantua ,4243360075,7005879,45.15,10.8,14.0,29.0,0.0
Marone ,4243360137,1045275,45.733333,10.083333,1.0,0.0,1.0
Massa ,4243360166,7004249,44.016667,10.15,1.0,0.0,1.0
Mazara del Vallo ,4243360187,7003846,37.65,12.583333,1.0,0.0,1.0
Medicina ,4243360198,1045324,44.466667,11.633333,1.0,0.0,1.0
Mensano ,4243360222,5003035,43.3,11.05,1.0,0.0,1.0
Merano ,4243360225,7005432,46.666667,11.15,0.0,1.0,0.0
Messina ,4243360240,7003897,38.183333,15.566667,13.0,10.0,1.0
Milan ,4243360266,7005903,45.466667,9.2,42.0,54.0,0.0
Mirandola ,4243360291,7004961,44.883333,11.066667,1.0,1.0,0.0
Miseno ,4243360299,7010130,40.783333,14.083333,0.0,1.0,0.0
Modena ,4243360307,7009565,44.666667,10.916667,15.0,13.0,1.0
Mogliano ,4243360314,4007292,45.565,12.235,1.0,0.0,1.0
Molfetta ,4243360323,7004113,41.2,16.6,1.0,0.0,1.0
Mondov¨¬ ,4243360347,7005651,44.383333,7.816667,0.0,1.0,0.0
Moneglia ,4243360349,7005337,44.233333,9.5,1.0,0.0,1.0
Monguelfo ,4243360358,1045451,46.758611,12.110833,1.0,0.0,1.0
Monopoli ,4243360359,7004117,40.95,17.3,1.0,0.0,1.0
Monreale ,4243360360,7003936,38.083333,13.283333,1.0,0.0,1.0
Montecassiano ,4243360398,1045493,43.35,13.433333,0.0,1.0,0.0
Montefalco ,4243360425,7005053,42.9,12.65,1.0,1.0,0.0
Montelupo Fiorentino ,4243360455,7006164,43.733333,11.016667,1.0,0.0,1.0
Montepulciano ,4243360478,7006345,43.083333,11.783333,0.0,1.0,0.0
Montevarchi ,4243360516,7006114,43.516667,11.566667,3.0,1.0,1.0
Monticelli ,4243360526,7004898,43.768,11.254,1.0,0.0,1.0
Motta di Livenza ,4243360581,7003046,45.778056,12.602778,1.0,0.0,1.0
Massa-Carrara province ,4243360613,1003473,44.25,10.05,2.0,0.0,1.0
Montalbano ,4243360614,7006132,44.194095,11.33375,1.0,0.0,1.0
Murano ,4243360615,7003021,45.45,12.3667,1.0,0.0,1.0
Naples ,4243390002,7004474,40.833333,14.25,37.0,64.0,0.0
Nembro ,4243390017,1045650,45.75,9.75,1.0,1.0,0.0
Nettuno ,4243390031,7007028,41.45,12.65,1.0,0.0,1.0
Nola ,4243390057,7004644,40.916667,14.55,1.0,1.0,0.0
Novara ,4243390076,7005652,45.466667,8.633333,2.0,1.0,1.0
Novellara ,4243390082,7005029,44.85,10.733333,1.0,1.0,0.0
Oggiono ,4243420007,7031836,45.783333,9.333333,1.0,0.0,1.0
Oppido Lucano ,4243420037,1045752,40.783333,16,1.0,0.0,1.0
Orta Nova ,4243420063,1045774,41.316667,15.7,1.0,0.0,1.0
Orvieto ,4243420072,7005124,42.716667,12.116667,2.0,5.0,0.0
Orzinuovi ,4243420074,7005779,45.4,9.916667,2.0,0.0,1.0
Ostia ,4243420094,7007023,41.7667,12.3,1.0,0.0,1.0
Padova province ,4243420117,7002994,45.35,11.816667,1.0,0.0,1.0
Padua ,4243450011,7003085,45.416667,11.883333,21.0,26.0,0.0
Palermo ,4243450044,7003928,38.116667,13.366667,14.0,16.0,0.0
Palmanova ,4243450054,4008430,45.906389,13.311944,1.0,0.0,1.0
Parma ,4243450082,7004942,44.8,10.333333,15.0,15.0,0.0
Passignano ,4243450089,5002811,43.183333,12.133333,1.0,0.0,1.0
Pavia ,4243450103,7006026,45.166667,9.166667,6.0,2.0,1.0
Perugia ,4243450142,7000526,43.133333,12.366667,15.0,12.0,1.0
Pesaro ,4243450143,7003991,43.9,12.916667,6.0,2.0,1.0
Pescia ,4243450151,7006306,43.9,10.683333,1.0,1.0,0.0
Piacenza ,4243450174,7004939,45.016667,9.666667,5.0,5.0,0.0
Piazza Armerina ,4243450195,7003923,37.383333,14.366667,1.0,1.0,0.0
Pieve di Cadore ,4243450234,7003332,46.433056,12.383611,6.0,2.0,1.0
Pieve di Soligo ,4243450236,1046007,45.9025,12.177222,1.0,1.0,0.0
Pieve di Teco ,4243450237,1046008,44.05,7.933333,1.0,1.0,0.0
Pinerolo ,4243450250,7005728,44.883333,7.35,0.0,1.0,0.0
Pisa ,4243450264,7006082,43.716667,10.383333,5.0,9.0,0.0
Pistoia ,4243450268,7005060,43.916667,10.9,7.0,4.0,1.0
Pitigliano ,4243450270,7006177,42.633333,11.666667,1.0,0.0,1.0
Poggibonsi ,4243450286,7006330,43.466667,11.15,1.0,0.0,1.0
Pomarance ,4243450325,1046075,43.3,10.866667,1.0,0.0,1.0
Pontassieve ,4243450336,7006556,43.766667,11.433333,1.0,0.0,1.0
Pontedera ,4243450353,7006299,43.666667,10.633333,1.0,0.0,1.0
Pontorme ,4243450385,5002915,43.35874,11.0293,1.0,0.0,1.0
Pontremoli ,4243450386,7006293,44.366667,9.883333,1.0,0.0,1.0
Ponzano Romano ,4243450389,5002408,42.256938,12.572866,1.0,0.0,1.0
Pordenone ,4243450402,7003352,45.963889,12.6575,3.0,0.0,1.0
Porlezza ,4243450403,7005855,46.033333,9.116667,3.0,0.0,1.0
Port'Ercole ,4243450407,1046135,42.383333,11.2,0.0,1.0,0.0
Portogruaro ,4243450419,7003045,45.775278,12.838611,0.0,1.0,0.0
Prato ,4243450464,7006161,43.883333,11.1,3.0,2.0,1.0
Pratovecchio ,4243450469,5002845,43.783333,11.716667,1.0,0.0,1.0
Racalmuto ,4243510001,7009956,37.4,13.733333,1.0,1.0,0.0
Ravenna ,4243510029,7004935,44.4175,12.201111,4.0,4.0,0.0
Recanati ,4243510034,7004019,43.4,13.533333,1.0,2.0,0.0
Reggio nell'Emilia ,4243510041,7005020,44.716667,10.6,7.0,6.0,1.0
Resina ,4243510050,7031897,40.8,14.35,0.0,1.0,0.0
Rieti ,4243510070,7006739,42.4,12.85,2.0,2.0,0.0
Rimini ,4243510077,7004929,44.063333,12.580833,2.0,3.0,0.0
Ripatransone ,4243510092,7008851,43,13.766667,1.0,1.0,0.0
Rivoli ,4243510109,7005763,45.066667,7.516667,2.0,0.0,1.0
Rome ,4243510165,7000874,41.9,12.483333,101.0,325.0,0.0
Rovato ,4243510212,1046394,45.566667,10,1.0,1.0,0.0
Rovetta ,4243510221,4009485,45.883333,9.983333,1.0,1.0,0.0
Rovigo ,4243510223,7003271,45.066667,11.783333,1.0,0.0,1.0
Sabbioneta ,4243540003,7005884,45,10.65,0.0,1.0,0.0
Salerno ,4243540027,7003015,40.683333,14.783333,2.0,0.0,1.0
Sal¨° ,4243540031,7005790,45.6,10.516667,1.0,0.0,1.0
San Gimignano ,4243540128,7006334,43.466667,11.033333,2.0,0.0,1.0
San Giovanni Bianco ,4243540150,1046543,45.866667,9.65,1.0,0.0,1.0
San Giovanni Valdarno ,4243540162,7006537,43.566667,11.533333,3.0,0.0,1.0
San Pancrazio Salentino ,4243540241,1046601,40.416667,17.833333,0.0,1.0,0.0
San Pietro in Casale ,4243540256,1046612,44.7,11.4,0.0,1.0,0.0
Sansepolcro ,4243540280,7000478,43.566667,12.133333,9.0,1.0,1.0
San Severino Marche ,4243540282,7004020,43.216667,13.166667,1.0,1.0,0.0
Santa Croce ,4243540299,1046701,46.092222,12.324722,1.0,0.0,1.0
Sant'Angelo in Vado ,4243540364,7008906,43.666667,12.416667,2.0,0.0,1.0
San Vito al Tagliamento ,4243540438,7003047,45.914444,12.85,0.0,2.0,0.0
Sarzana ,4243540473,7005367,44.116667,9.966667,1.0,0.0,1.0
Sassoferrato ,4243540481,7004009,43.433333,12.85,2.0,0.0,1.0
Savigliano ,4243540492,7005646,44.633333,7.666667,0.0,1.0,0.0
Savona ,4243540499,7005371,44.283333,8.5,4.0,0.0,1.0
Scaria ,4243540511,4010172,45.986132,9.044111,9.0,3.0,1.0
Scarperia ,4243540514,7006157,44,11.35,1.0,0.0,1.0
Sciacca ,4243540524,7003812,37.516667,13.05,1.0,0.0,1.0
Seregno ,4243540580,7006003,45.65,9.2,1.0,0.0,1.0
Sermoneta ,4243540585,7006725,41.55,12.983333,2.0,0.0,1.0
Sesto Calende ,4243540621,7006046,45.733333,8.633333,1.0,0.0,1.0
Sestri Ponente ,4243540627,1046890,44.4167,8.85,1.0,1.0,0.0
Siena ,4243540646,7011179,43.316667,11.35,37.0,36.0,1.0
Signa ,4243540648,7006174,43.783333,11.083333,1.0,0.0,1.0
Spilimbergo ,4243540739,7005532,46.1125,12.896944,0.0,1.0,0.0
Spoleto ,4243540747,7005042,42.733333,12.733333,0.0,2.0,0.0
Stilo ,4243540770,7004321,38.483333,16.466667,1.0,0.0,1.0
Sulmona ,4243540793,7004202,42.05,13.916667,1.0,0.0,1.0
Settignano ,4243540810,7006128,43.782874,11.320987,8.0,0.0,1.0
Savona province ,4243540813,7003144,44.3,8.266667,1.0,0.0,1.0
Siracusa ,4243540815,1001753,37.05,15,1.0,1.0,0.0
Tuscany ,4243570000,7009760,43.4167,11,2.0,1.0,1.0
Taverna ,4243570029,7004295,39.016667,16.583333,1.0,0.0,1.0
Terni ,4243570060,7005123,42.566667,12.616667,0.0,1.0,0.0
Tesero ,4243570073,7005488,46.283333,11.516667,1.0,0.0,1.0
Thiene ,4243570077,7003214,45.7,11.483333,1.0,1.0,0.0
Turin ,4243570114,7005688,45.05,7.666667,10.0,23.0,0.0
Torre del Greco ,4243570130,7004664,40.783333,14.366667,0.0,1.0,0.0
Torricella ,4243570150,1047154,40.35,17.483333,1.0,0.0,1.0
Trapani ,4243570176,7003849,38.016667,12.483333,1.0,0.0,1.0
Trento ,4243570197,7005128,46.066667,11.133333,4.0,0.0,1.0
Treviglio ,4243570207,7005841,45.516667,9.583333,2.0,1.0,1.0
Treviso ,4243570210,7003297,45.666667,12.245,4.0,2.0,1.0
Trieste ,4243570218,7005539,45.648611,13.78,1.0,1.0,0.0
Trino ,4243570223,7005677,45.2,8.3,1.0,1.0,0.0
Udine province ,4243570263,1003506,46.166667,13,1.0,0.0,1.0
Udine ,4243600003,7005139,46.061944,13.242222,3.0,3.0,0.0
Urbania ,4243600010,7003992,43.666667,12.516667,0.0,1.0,0.0
Urbino ,4243600012,7003994,43.716667,12.633333,16.0,12.0,1.0
Vado Ligure ,4243630004,1047266,44.283333,8.45,1.0,0.0,1.0
Vaprio d'Adda ,4243630064,1047315,45.583333,9.516667,0.0,1.0,0.0
Varallo ,4243630065,7005664,45.816667,8.25,0.0,1.0,0.0
Varese ,4243630072,7006041,45.8,8.833333,2.0,2.0,0.0
Velletri ,4243630097,7009108,41.683333,12.783333,1.0,0.0,1.0
Venice ,4243630105,7018159,45.438611,12.326667,99.0,136.0,0.0
Vercelli ,4243630118,7005662,45.316667,8.416667,3.0,1.0,1.0
Verona ,4243630132,7003262,45.45,11,48.0,35.0,1.0
Viadana ,4243630156,7005885,44.933333,10.516667,2.0,0.0,1.0
Vicchio ,4243630161,7006147,43.933333,11.466667,2.0,0.0,1.0
Vicenza ,4243630163,7003204,45.55,11.55,9.0,10.0,0.0
Viggiu ,4243630183,7006059,45.866667,8.9,3.0,1.0,1.0
Vignola ,4243630186,7004963,44.483333,11,2.0,0.0,1.0
Vinci ,4243630266,7006173,43.783333,10.916667,2.0,0.0,1.0
Viterbo ,4243630275,7000875,42.416667,12.1,3.0,2.0,1.0
Voltaggio ,4243630295,7005608,44.616667,8.833333,1.0,0.0,1.0
Volterra ,4243630298,7006305,43.4,10.85,5.0,0.0,1.0
Voltri ,4243630299,1047503,44.433333,8.75,1.0,0.0,1.0
Verona province ,4243630310,7003007,45.416667,11.033333,1.0,0.0,1.0
Viterbo province ,4243630313,7003139,42.416667,12.083333,0.0,1.0,0.0
Zagarolo ,4243750002,7017495,41.833333,12.833333,0.0,1.0,0.0
Osteno ,4243750026,7029510,46,9.083333,1.0,0.0,1.0
Intra ,4243750027,7030720,45.933333,8.566667,1.0,0.0,1.0
Jersey island ,4271270000,7005254,49.21283,-2.13317,0.0,1.0,0.0
Jelgava ,4330270007,7006473,56.65,23.6667,1.0,1.0,0.0
Malta ,4361000000,7005729,35.9167,14.4167,1.0,2.0,0.0
Valletta ,4361630000,7005732,35.9,14.5333,0.0,2.0,0.0
Netherlands ,4390000000,7016845,52.5,5.75,4.0,2.0,1.0
Alkmaar ,4390000015,7007057,52.633333,4.75,6.0,6.0,0.0
Amersfoort ,4390000025,7006922,52.15,5.383333,7.0,1.0,1.0
Amsterdam ,4390000029,7006952,52.35,4.916667,116.0,164.0,0.0
Arnemuiden ,4390000036,7006756,51.5,3.666667,1.0,1.0,0.0
Arnhem ,4390000037,7006876,51.983333,5.916667,1.0,0.0,1.0
Assendelft ,4390000040,1047624,52.466667,4.75,1.0,1.0,0.0
Bergen ,4390030027,7007058,52.666667,4.7,1.0,0.0,1.0
Bergen-op-Zoom ,4390030029,7006822,51.5,4.3,1.0,0.0,1.0
Beverwijk ,4390030039,7007050,52.483333,4.65,2.0,1.0,1.0
Bodegraven ,4390030051,1047663,52.083333,4.75,1.0,0.0,1.0
Bolsward ,4390030054,7006999,53.066667,5.533333,2.0,0.0,1.0
Breda ,4390030068,7006827,51.566667,4.8,5.0,4.0,1.0
Chaam ,4390060004,1047695,51.5,4.866667,0.0,1.0,0.0
Delft ,4390090010,7006804,52,4.366667,14.0,11.0,1.0
Deventer ,4390090021,7006940,52.25,6.2,2.0,2.0,0.0
Dokkum ,4390090034,7007020,53.333333,6,1.0,0.0,1.0
Dordrecht ,4390090040,7006798,51.8,4.666667,14.0,12.0,1.0
Edam ,4390120002,7007051,52.516667,5.05,1.0,0.0,1.0
Eindhoven ,4390120017,7006842,51.45,5.466667,1.0,1.0,0.0
Enkhuizen ,4390120027,7007064,52.716667,5.283333,1.0,1.0,0.0
Goes ,4390180018,7006755,51.5,3.883333,1.0,0.0,1.0
Gorinchem ,4390180022,1047795,51.833333,4.966667,5.0,0.0,1.0
Gouda ,4390180024,7006805,52.016667,4.7,2.0,3.0,0.0
Groningen ,4390180033,7006984,53.216667,6.55,4.0,4.0,0.0
Haarlem ,4390210003,7007048,52.366667,4.65,65.0,48.0,1.0
Harlingen ,4390210015,7007015,53.183333,5.416667,2.0,0.0,1.0
Heemskerk ,4390210024,1047829,52.516667,4.666667,1.0,0.0,1.0
Helmond ,4390210037,7006840,51.483333,5.666667,1.0,0.0,1.0
Heusden ,4390210041,4005002,51.733333,5.133333,1.0,0.0,1.0
Holland ,4390210054,1003759,51.366699,5.15,2.0,0.0,1.0
Hoorn ,4390210067,7007056,52.65,5.066667,1.0,6.0,0.0
Hulst ,4390210075,1047867,51.283333,4.05,3.0,0.0,1.0
Hague, The ,4390210077,7006810,52.083333,4.3,38.0,42.0,0.0
Hillegersberg ,4390210078,1004664,51.9667,4.5167,0.0,1.0,0.0
Kampen ,4390300002,7006948,52.55,5.916667,1.0,2.0,0.0
Kollum ,4390300016,1047889,53.283333,6.15,1.0,0.0,1.0
Leeuwarden ,4390330010,7007006,53.2,5.783333,4.0,5.0,0.0
Leyden ,4390330011,7006809,52.15,4.5,31.0,25.0,1.0
Maassluis ,4390360005,7006793,51.916667,4.266667,1.0,0.0,1.0
Maastricht ,4390360006,7006862,50.85,5.683333,3.0,0.0,1.0
Made ,4390360007,1047933,51.683333,4.8,1.0,0.0,1.0
Middelburg ,4390360023,7006752,51.5,3.616667,1.0,1.0,0.0
Middenbeemster ,4390360026,1047948,52.55,4.916667,1.0,0.0,1.0
Nijmegen ,4390390026,7031832,51.833333,5.866667,3.0,0.0,1.0
Oudewater ,4390420042,1048037,52.033333,4.883333,1.0,0.0,1.0
Overschie ,4390420052,1005292,51.9333,4.4333,1.0,1.0,0.0
Rotterdam ,4390510029,7006792,51.916667,4.5,20.0,24.0,0.0
Randenbroek ,4390510035,7029461,52.08997,5.1073,0.0,1.0,0.0
Roderwolde ,4390510036,7029492,53.166667,6.466667,1.0,0.0,1.0
South Holland ,4390540000,7003632,52,4.5,2.0,0.0,1.0
Schiedam ,4390540009,7006800,51.916667,4.4,1.0,0.0,1.0
Schoonhoven ,4390540018,7006801,51.95,4.85,1.0,1.0,0.0
Schoorl ,4390540019,1048097,52.7,4.7,1.0,0.0,1.0
s Hertogenbosch ,4390540026,7006837,51.7,5.316667,6.0,1.0,1.0
Steenwijk ,4390540065,1048136,52.783333,6.116667,1.0,0.0,1.0
Terneuzen ,4390570004,1048147,51.333333,3.833333,1.0,0.0,1.0
Utrecht ,4390600014,7006926,52.083333,5.133333,43.0,40.0,1.0
Venlo ,4390630019,7006853,51.366667,6.166667,2.0,0.0,1.0
Voorburg ,4390630035,7006811,52.066667,4.366667,1.0,0.0,1.0
Weesp ,4390660019,1048226,52.316667,5.033333,0.0,1.0,0.0
Wijk-bij-Duurstede ,4390660040,7017400,51.983333,5.35,1.0,0.0,1.0
Woerden ,4390660052,1048252,52.083333,4.916667,1.0,0.0,1.0
Zaandam ,4390750001,4012447,52.45,4.833333,1.0,0.0,1.0
Zaltbommel ,4390750004,7006866,51.8,5.25,2.0,0.0,1.0
Zwijndrecht ,4390750032,1048288,51.816667,4.65,0.0,1.0,0.0
Zwolle ,4390750033,7007077,52.5,6.083333,4.0,2.0,1.0
Norway ,4391000000,1000088,62,10,1.0,0.0,1.0
Bergen ,4391030007,7007059,60.3833,5.3333,1.0,0.0,1.0
Flekkefjord ,4391150014,7009574,58.2833,6.6667,0.0,1.0,0.0
Mandal ,4391360004,1048656,58.0333,7.5,1.0,0.0,1.0
Trondheim ,4391570017,7009596,63.2,9.75,0.0,1.0,0.0
Poland ,4450000000,7006366,52,20,0.0,1.0,0.0
Bogatynia ,4450030046,1048937,50.4167,14.95,1.0,0.0,1.0
Chojnice ,4450060013,7007643,53.7,17.5333,0.0,1.0,0.0
Gda¨½sk ,4450180003,7006357,54.25,18.25,1.0,3.0,0.0
Gda¨½sk ,4450180004,7007660,54.3667,18.6833,9.0,7.0,1.0
Ko_uch¨®w ,4450300079,1049149,51.75,15.6,1.0,0.0,1.0
Krak¨®w ,4450300082,7006359,50,20,0.0,1.0,0.0
Cracow ,4450300083,7007652,50.05,19.9167,2.0,4.0,0.0
Legnica ,4450330018,7007726,51.2,16.1667,1.0,1.0,0.0
Lubi__ ,4450330052,4006618,51.2667,16.4667,0.0,1.0,0.0
Nysa ,4450390034,1049304,50.5,17.3333,1.0,0.0,1.0
Pozna¨½ ,4450450047,7007756,52.4167,16.8833,0.0,1.0,0.0
Rudnik ,4450510034,1049423,50.4333,22.2667,0.0,1.0,0.0
Rydzyna ,4450510039,1049427,51.7833,16.65,0.0,1.0,0.0
Szczecin ,4450540120,1002043,53.5,15,1.0,0.0,1.0
Szczecin ,4450540121,7007809,53.4167,14.5333,2.0,0.0,1.0
Toru¨½ ,4450570014,7007831,53.0167,18.5833,0.0,1.0,0.0
Trzebnica ,4450570025,7007817,51.3333,17.0167,1.0,0.0,1.0
Warsaw ,4450660012,7007833,52.25,21,1.0,10.0,0.0
Wo_czyn ,4450660050,1049605,51.0167,18.05,1.0,0.0,1.0
Breslau ,4450660056,7007601,51.1,17,8.0,8.0,0.0
Zielona G¨®ra ,4450750034,1049650,51.95,15.5,1.0,0.0,1.0
Braga ,4451030018,7010775,41.55,-8.4333,2.0,1.0,1.0
Coimbra ,4451060033,7010814,40.2,-8.4167,2.0,3.0,0.0
_vora ,4451120013,7010600,38.5667,-7.9,2.0,1.0,1.0
Lisbon ,4451330010,7010978,38.7333,-9.1333,13.0,21.0,0.0
Porto ,4451450034,7010979,41.1667,-8.5833,3.0,0.0,1.0
Tomar ,4451570005,7011086,39.6,-8.4167,1.0,2.0,0.0
Viana do Castelo ,4451630013,7011101,41.6833,-8.8333,0.0,1.0,0.0
Arge_ ,4511000003,7002693,45,24.8333,0.0,1.0,0.0
C_mpulung ,4511060026,7004130,45.2667,25.05,1.0,0.0,1.0
Constan_a ,4511060042,7004050,44.2,28.6667,0.0,1.0,0.0
Sibiu ,4511540023,7004269,45.7667,24.15,0.0,2.0,0.0
Spain ,4540000000,1000095,40,-4,2.0,5.0,0.0
Aragon ,4540000002,7002759,41.5,-.5,1.0,0.0,1.0
Alcal¨¢ de Henares ,4540000042,7007139,40.483333,-3.366667,1.0,0.0,1.0
Alcal¨¢ la Real ,4540000043,1061717,37.466667,-3.933333,1.0,0.0,1.0
Alicante ,4540000084,7007259,38.35,-.483333,0.0,1.0,0.0
Almad¨¦n ,4540000087,1061745,38.766667,-4.833333,1.0,0.0,1.0
Antequera ,4540000121,7007265,37.016667,-4.55,2.0,1.0,1.0
Aranjuez ,4540000130,7007284,40.033333,-3.6,0.0,1.0,0.0
Arenas de San Pedro ,4540000135,1061773,40.2,-5.083333,0.0,1.0,0.0
_vila ,4540000171,7007090,40.65,-4.7,1.0,0.0,1.0
Avil¨¦s ,4540000172,7007349,43.556944,-5.924722,1.0,0.0,1.0
Azcoitia ,4540000176,4001023,43.177719,-2.310181,1.0,0.0,1.0
Azpeitia ,4540000178,1061796,43.18143,-2.263527,1.0,0.0,1.0
Barcelona ,4540030022,7007426,41.398371,2.1741,3.0,5.0,0.0
Bujalance ,4540030099,7007509,37.9,-4.366667,0.0,1.0,0.0
Burgos ,4540030104,7007510,42.35,-3.7,4.0,0.0,1.0
Cantabria ,4540060001,7002760,43.135935,-4.000645,1.0,0.0,1.0
Cabra ,4540060011,7007570,37.466667,-4.45,1.0,0.0,1.0
C¨¢diz ,4540060016,7007512,36.533611,-6.299444,1.0,3.0,0.0
Camarena ,4540060031,4002123,40.083333,-4.116667,1.0,0.0,1.0
Cazorla ,4540060114,1061937,37.916667,-3,1.0,0.0,1.0
Cervera ,4540060124,1061943,41.672663,1.271554,1.0,0.0,1.0
Ciempozuelos ,4540060139,1061953,40.166667,-3.616667,1.0,0.0,1.0
Cocentaina ,4540060152,1061963,38.75,-.433333,1.0,0.0,1.0
Colmenar de Oreja ,4540060161,7007635,40.1,-3.383333,1.0,0.0,1.0
Consuegra ,4540060165,1061970,39.466667,-3.6,2.0,0.0,1.0
Cordova ,4540060167,7007513,37.883333,-4.766667,7.0,2.0,1.0
Cuenca ,4540060181,7007638,40.066667,-2.133333,3.0,3.0,0.0
Elvillar ,4540120033,4003615,43.516667,-5.35,0.0,1.0,0.0
Felanitx ,4540150003,7007680,39.466667,3.133333,1.0,0.0,1.0
Fuente de Cantos ,4540150019,1062032,38.25,-6.3,1.0,0.0,1.0
Galicia ,4540180000,7002786,42.75,-8,1.0,0.0,1.0
Gerona ,4540180017,7007697,41.982548,2.822449,3.0,1.0,1.0
Granada ,4540180026,7007703,37.183333,-3.6,5.0,9.0,0.0
Huelva ,4540210019,7007784,37.258333,-6.950833,0.0,1.0,0.0
Huesca ,4540210021,7007785,42.13868,-.409411,1.0,2.0,0.0
J¨¢tiva ,4540270007,7007823,38.983333,-.516667,1.0,0.0,1.0
Jerez de la Frontera ,4540270009,7007901,36.683333,-6.133333,1.0,1.0,0.0
La Cuesta ,4540330017,4005957,43.55,-5.733333,1.0,0.0,1.0
Le¨®n ,4540330075,7009120,42.6,-5.566667,1.0,1.0,0.0
L¨¦rida ,4540330079,7007789,41.616737,.622183,1.0,0.0,1.0
Llerena ,4540330090,7007926,38.233333,-6.016667,2.0,0.0,1.0
Logro_o ,4540330095,7007928,42.466667,-2.45,1.0,0.0,1.0
Lucena ,4540330112,1062186,37.4,-4.483333,1.0,0.0,1.0
Madrid ,4540360003,7010413,40.4,-3.683333,24.0,70.0,0.0
M¨¢laga ,4540360011,7007942,36.716667,-4.416667,0.0,2.0,0.0
Medina de R¨ªoseco ,4540360044,7008034,41.883333,-5.033333,1.0,3.0,0.0
Medina-Sidonia ,4540360045,1062225,36.45,-5.916667,1.0,0.0,1.0
Monforte de Lemos ,4540360074,1062247,42.516667,-7.5,0.0,1.0,0.0
Montoro ,4540360096,1062262,38.016667,-4.383333,1.0,0.0,1.0
Murcia ,4540360123,7008128,37.983333,-1.116667,1.0,0.0,1.0
Mascaraque ,4540360127,7029509,39.716667,-3.816667,1.0,0.0,1.0
Mallorca ,4540360131,7007959,39.5,3,1.0,0.0,1.0
Navalcarnero ,4540390007,1062290,40.3,-4,1.0,0.0,1.0
Onteniente ,4540420015,1062310,38.816667,-.616667,1.0,0.0,1.0
Orgaz ,4540420021,1062314,39.65,-3.9,0.0,1.0,0.0
Oviedo ,4540420032,7008910,43.366667,-5.833333,2.0,0.0,1.0
Palma de Mallorca ,4540450011,7008232,39.566667,2.65,1.0,1.0,0.0
Pamplona ,4540450012,7008233,42.816667,-1.633333,0.0,1.0,0.0
Paredes de Nava ,4540450017,7008359,42.15,-4.683333,1.0,0.0,1.0
Pastrana ,4540450019,7008360,40.416667,-2.916667,1.0,0.0,1.0
Plasencia ,4540450048,7008398,40.033333,-6.083333,0.0,1.0,0.0
Ronda ,4540510038,7010440,36.733333,-5.166667,1.0,0.0,1.0
Salamanca ,4540540011,7008561,40.966667,-5.65,3.0,3.0,0.0
San Lorenzo de El Escorial ,4540540046,7007653,40.583333,-4.116667,0.0,1.0,0.0
Sanl¨²car de Barrameda ,4540540049,7008617,36.783333,-6.35,1.0,0.0,1.0
Santiago de Compostela ,4540540101,7008643,42.883333,-8.55,1.0,1.0,0.0
Santo Domingo de la Calzada ,4540540107,7007575,42.440151,-2.953648,0.0,1.0,0.0
Segovia ,4540540122,7008661,40.95,-4.116667,0.0,1.0,0.0
Seville ,4540540133,7008676,37.377222,-5.986944,16.0,25.0,0.0
Sobrado ,4540540142,4010554,43.316667,-6.533333,1.0,0.0,1.0
Sevilla province ,4540540162,7002841,37.4167,-5.8333,1.0,0.0,1.0
Tarazona ,4540570009,7008713,41.9,-1.733333,1.0,0.0,1.0
Tarragona ,4540570013,7008715,41.116667,1.25,1.0,0.0,1.0
Toledo ,4540570030,7008719,39.866667,-4.016667,8.0,12.0,0.0
Trigueros ,4540570067,1062578,37.383333,-6.833333,0.0,1.0,0.0
Tudela ,4540570071,7008754,42.083333,-1.6,1.0,0.0,1.0
Utiel ,4540600009,1062588,39.566667,-1.2,1.0,0.0,1.0
Valencia ,4540630009,7008769,39.466667,-.366667,8.0,12.0,0.0
Valladolid ,4540630012,7008771,41.65,-4.716667,0.0,2.0,0.0
Valls ,4540630020,7008779,41.286117,1.249929,1.0,0.0,1.0
Viana ,4540630037,4011756,41.533333,-2.45,0.0,1.0,0.0
Villaviciosa de Od¨®n ,4540630094,4011847,40.366667,-3.9,0.0,1.0,0.0
Yecla ,4540720000,1062662,38.616667,-1.116667,1.0,0.0,1.0
Zamora ,4540750004,7008812,41.5,-5.75,2.0,0.0,1.0
Zaragoza ,4540750005,7008813,41.633333,-.883333,4.0,4.0,0.0
Switzerland ,4542000000,7011731,47,8,3.0,0.0,1.0
Appenzell ,4542000036,7007311,47.3333,9.4167,1.0,0.0,1.0
Basel ,4542030012,7007269,47.55,7.6,8.0,6.0,1.0
Bern ,4542030027,7007557,46.95,7.4333,6.0,11.0,0.0
Berom¨¹nster ,4542030028,7007319,47.2167,8.2,0.0,1.0,0.0
Biel ,4542030032,7007320,47.15,7.2667,1.0,0.0,1.0
Brugg ,4542030059,7007327,47.4833,8.2167,1.0,0.0,1.0
Buochs ,4542030069,1063971,46.9667,8.4333,1.0,1.0,0.0
Burgdorf ,4542030071,7007331,47.05,7.6333,1.0,0.0,1.0
Bissone ,4542030074,7030487,45.95,8.966,1.0,0.0,1.0
Chiasso ,4542060022,1063991,45.85,9.0333,1.0,1.0,0.0
Chur ,4542060025,7007276,46.8667,9.5333,1.0,0.0,1.0
Coldrerio ,4542060029,4002771,45.854382,8.98757,1.0,0.0,1.0
Eglisau ,4542120004,1064028,47.5833,8.5333,1.0,0.0,1.0
Einsiedeln ,4542120006,7007350,47.1167,8.75,1.0,1.0,0.0
Fribourg ,4542150019,7007278,46.8333,7.1667,1.0,1.0,0.0
Graub¨¹nden ,4542180002,7003748,46.75,9.5,1.0,0.0,1.0
Geneva ,4542180010,7007279,46.2167,6.15,12.0,6.0,1.0
Horgen ,4542210017,1064111,47.2667,8.6,0.0,1.0,0.0
Lachen ,4542330003,7007388,47.2,8.85,1.0,0.0,1.0
Langnau ,4542330009,1064167,46.95,7.7833,1.0,0.0,1.0
Locarno ,4542330055,7007288,46.1667,8.8,2.0,1.0,1.0
Lugano ,4542330061,7007289,46.0167,8.95,4.0,2.0,1.0
Luzern ,4542330066,7007280,47.05,8.2833,3.0,3.0,0.0
Melide ,4542360019,1064231,45.95,8.95,4.0,0.0,1.0
Mendrisio ,4542360022,7007290,45.8833,8.9833,0.0,1.0,0.0
Meride ,4542360024,4007124,45.9,8.95,0.0,1.0,0.0
Morcote ,4542360040,7007413,45.9167,8.9167,2.0,0.0,1.0
Muri ,4542360060,1138710,47.2667,8.35,1.0,0.0,1.0
Sankt Gallen ,4542540031,7007460,47.4167,9.3833,2.0,0.0,1.0
Schaffhausen ,4542540046,7007462,47.7,8.6333,13.0,8.0,1.0
Schwyz ,4542540061,7007465,47.0333,8.65,1.0,1.0,0.0
Solothurn ,4542540089,7007295,47.2167,7.5333,3.0,1.0,1.0
Thurgau ,4542570000,7003759,47.5833,9,1.0,0.0,1.0
Ticino ,4542570001,7004723,46.3333,8.75,2.0,0.0,1.0
Teufen ,4542570011,1064449,47.3833,9.3833,0.0,1.0,0.0
Winterthur ,4542660033,7007301,47.5,8.75,2.0,2.0,0.0
Zug ,4542750013,7007544,47.1667,8.5167,2.0,2.0,0.0
Zurich ,4542750015,7007302,47.3833,8.55,19.0,16.0,1.0
Slovenia ,4543000000,7006670,46.25,15.1667,1.0,0.0,1.0
Ljubljana ,4543330015,7012986,46.0667,14.5,0.0,1.0,0.0
Maribor ,4543360005,7012987,46.55,15.6667,0.0,1.0,0.0
Novo Mesto ,4543390004,7012982,45.8,15.1667,1.0,0.0,1.0
Slovakia ,4544000000,7011765,48.6667,19.5,1.0,0.0,1.0
Bratislava ,4544030006,7006465,48.1667,17.1667,1.0,1.0,0.0
Ko_ice ,4544300004,7011529,48.7333,21.25,1.0,0.0,1.0
Levo_a ,4544330001,7011691,49.0167,20.5833,1.0,0.0,1.0
Spi_sk¨¢ Sobota ,4544540015,4010679,49.0667,20.3333,1.0,0.0,1.0
Sweden ,4546000000,1000097,62,15,0.0,1.0,0.0
Arboga ,4546000060,7009766,59.4,15.8333,1.0,0.0,1.0
Bor_s ,4546030067,7009772,57.7333,12.9167,1.0,0.0,1.0
Gagnef ,4546180003,1063005,60.5833,15.0833,1.0,0.0,1.0
Gimo ,4546180019,7009815,60.1833,18.2,1.0,0.0,1.0
G_teborg ,4546180034,7009954,57.7167,11.9667,3.0,1.0,1.0
Lidk_ping ,4546330025,7009834,58.5,13.1667,1.0,0.0,1.0
Link_ping ,4546330041,7009951,58.4167,15.6167,1.0,0.0,1.0
Malm_ ,4546360005,7009839,55.5833,13,1.0,0.0,1.0
N_rke ,4546390003,7009844,58.670319,16.934759,1.0,0.0,1.0
Nyk_ping ,4546390031,1063438,58.75,17,1.0,0.0,1.0
_rebro ,4546420015,1062693,59.3,15.0833,0.0,1.0,0.0
Stockholm ,4546540002,7003777,59.5,18.3333,0.0,1.0,0.0
Sm_land ,4546540078,7009857,57.242439,14.945735,1.0,0.0,1.0
Stockholm ,4546540138,7009861,59.3333,18.0833,24.0,32.0,0.0
Uddevalla ,4546600002,1063777,58.350868,11.93351,1.0,0.0,1.0
Uppsala ,4546600016,7009867,59.9167,17.6333,0.0,1.0,0.0
Varberg ,4546630028,7009870,57.1,12.25,1.0,0.0,1.0
V_ster_s ,4546630037,7009872,59.6167,16.55,0.0,1.0,0.0
Glukhov ,4600180008,1054020,51.6833,33.8833,1.0,0.0,1.0
Kiev ,4600300093,7010171,50.4333,30.5167,1.0,1.0,0.0
Aberdeen ,4601000021,7009782,57.1667,-2.0667,2.0,0.0,1.0
Alloa ,4601000144,7009610,56.1167,-3.8167,2.0,0.0,1.0
Andover ,4601000200,7011400,51.2167,-1.4667,1.0,0.0,1.0
Anstruther ,4601000210,1050381,56.2333,-2.7,1.0,0.0,1.0
Aston ,4601000343,7025133,53.3333,-1.7167,0.0,1.0,0.0
Aberdeenshire ,4601000428,5000432,57.5,-2.5,2.0,0.0,1.0
Angus ,4601000431,7019140,56.6667,-2.9167,1.0,0.0,1.0
Aberdeen ,4601000437,7019141,57.1667,-2.0833,0.0,1.0,0.0
Batcombe ,4601030160,4001270,51.150761,-2.44567,1.0,0.0,1.0
Bath ,4601030162,7011197,51.3833,-2.3667,3.0,6.0,0.0
Beaconsfield ,4601030188,1028434,51.6167,-.65,0.0,1.0,0.0
Berkeley ,4601030274,7011148,51.7,-2.45,0.0,1.0,0.0
Birmingham ,4601030375,7010955,52.5,-1.8333,0.0,1.0,0.0
Blandford Forum ,4601030441,7011286,50.85,-2.15,1.0,0.0,1.0
Blandford Saint Mary ,4601030442,7025837,50.8333,-2.15,1.0,0.0,1.0
Boston ,4601030539,7010726,52.9833,-.0167,1.0,1.0,0.0
Bourne ,4601030554,7010737,52.7667,-.3833,1.0,0.0,1.0
Brecknock ,4601030682,5000550,51.949741,-3.39114,1.0,0.0,1.0
Bridlington ,4601030718,7010351,54.084,-.186,1.0,0.0,1.0
Brighton ,4601030727,7011483,50.8333,-.1667,0.0,1.0,0.0
Bristol ,4601030747,7011198,51.45,-2.5833,1.0,3.0,0.0
Brixham ,4601030751,1028639,50.3833,-3.5,0.0,1.0,0.0
Burgh by Sands ,4601030903,7026072,54.9212,-3.06032,0.0,1.0,0.0
Burslem ,4601030945,4002012,52.8333,-20,1.0,1.0,0.0
Bury Saint Edmunds ,4601030966,7010914,52.25,.7167,1.0,0.0,1.0
Bermondsey ,4601030990,1004092,51.485,-.067,0.0,1.0,0.0
Bromley ,4601030999,7026510,51.4167,.0333,0.0,1.0,0.0
Bloomsbury ,4601031005,7029225,51.520351,-0.12275,0.0,1.0,0.0
Caernarfon ,4601060010,7008824,53.1333,-4.2667,1.0,0.0,1.0
Cambridge ,4601060052,7010874,52.2,.1167,2.0,3.0,0.0
Canterbury ,4601060067,7012044,51.2833,1.0833,0.0,3.0,0.0
Carlisle ,4601060090,7010281,54.9,-2.9167,1.0,0.0,1.0
Castleton ,4601060142,1136682,54.45,-.9333,0.0,1.0,0.0
Chelmsford ,4601060250,7011848,51.7333,.4667,2.0,0.0,1.0
Chester ,4601060265,7012045,53.2,-2.9,1.0,1.0,0.0
Chichester ,4601060283,7011407,50.9167,-.7833,2.0,3.0,0.0
Chudleigh ,4601060347,1028852,50.6,-3.75,1.0,0.0,1.0
Colchester ,4601060483,7011866,51.9,.9,1.0,0.0,1.0
Cradley ,4601060654,5000833,52.1167,-2.3833,1.0,0.0,1.0
Cullompton ,4601060780,1029004,50.8667,-3.4,2.0,0.0,1.0
Cumberland ,4601060788,7011987,54.617109,-2.899845,1.0,1.0,0.0
Chiswick ,4601060818,1004281,51.4833,-.2667,1.0,2.0,0.0
Chelsea ,4601060820,4012680,51.4833,-.15,0.0,1.0,0.0
Cheshire ,4601060826,7008114,53,-2.6833,0.0,1.0,0.0
Cleveland ,4601060876,7008115,54.5833,-1.2167,1.0,0.0,1.0
Dalton-in-Furness ,4601090021,1029011,54.15,-3.1833,1.0,0.0,1.0
Dartmouth ,4601090033,7011320,50.35,-3.5833,0.0,1.0,0.0
Daventry ,4601090040,1029023,52.25,-1.1667,1.0,0.0,1.0
Derby ,4601090089,7010684,52.9167,-1.5,1.0,1.0,0.0
Dorney ,4601090168,7026498,51.5,-.65,0.0,1.0,0.0
Dover ,4601090177,7011554,51.1333,1.3167,0.0,1.0,0.0
Dumfries ,4601090239,7009393,55.0667,-3.6167,1.0,1.0,0.0
Dunkirk ,4601090262,1029090,51.2833,.9833,1.0,0.0,1.0
Durham ,4601090295,7010027,54.7833,-1.5667,2.0,0.0,1.0
Devon ,4601090314,7012077,50.7333,-3.8167,2.0,0.0,1.0
Deptford ,4601090317,7011800,51.4833,-.05,2.0,0.0,1.0
Dorset ,4601090320,7011961,50.7833,-2.3167,1.0,1.0,0.0
England ,4601120000,7002445,53,-2,5.0,19.0,0.0
East Anglia ,4601120021,7012973,52.21917,0.631665,1.0,0.0,1.0
Eastbourne ,4601120029,7011441,50.7667,.2833,1.0,0.0,1.0
Edinburgh ,4601120163,7009546,55.95,-3.2167,16.0,10.0,1.0
Egremont ,4601120187,1029158,54.4833,-3.55,1.0,1.0,0.0
Exeter ,4601120288,7011953,50.7167,-3.5167,2.0,1.0,1.0
Eye ,4601120296,1029201,52.3167,1.15,1.0,0.0,1.0
Essex ,4601120308,7008131,51.5833,.55,1.0,1.0,0.0
East Knoyle ,4601120315,7029286,51.074341,-2.17052,1.0,0.0,1.0
Farnham ,4601150036,7011742,51.2167,-.8167,1.0,1.0,0.0
Finchingfield ,4601150101,7026188,51.95,.45,1.0,0.0,1.0
Forfar ,4601150161,7009744,56.6333,-2.9,1.0,0.0,1.0
Fife ,4601150263,7008076,56.25,-3.0333,1.0,0.0,1.0
Glasgow ,4601180085,7017283,55.8833,-4.25,1.0,1.0,0.0
Gloucester ,4601180104,7011128,51.8833,-2.2333,2.0,0.0,1.0
Great Waltham ,4601180294,1029391,51.8,.4333,0.0,1.0,0.0
Great Britain ,4601180370,7008653,55.283096,-3.48906,2.0,0.0,1.0
Greater London ,4601180371,7008136,51.5,-.1667,0.0,1.0,0.0
Guilford ,4601180373,7029206,51.23708,-0.57051,1.0,0.0,1.0
Greenwich ,4601180375,7011789,51.4833,0,0.0,1.0,0.0
Halesowen ,4601210037,7010984,52.45,-2.05,2.0,0.0,1.0
Harwich ,4601210153,7011868,51.95,1.2833,0.0,1.0,0.0
Holbeach ,4601210416,1029581,52.8,.0167,1.0,0.0,1.0
Houghton ,4601210527,7010764,52.84145,-2.30546,1.0,0.0,1.0
Huntingdon ,4601210573,7010890,52.3333,-.2,1.0,0.0,1.0
Hampton Court ,4601210606,1100405,51.4,-.3167,0.0,1.0,0.0
Hampstead ,4601210611,7011827,51.55,-.1833,1.0,2.0,0.0
Herefordshire ,4601210612,7008143,52.15,-2.5,1.0,1.0,0.0
Husthwaite ,4601210622,7029264,50.167,-1.203,1.0,0.0,1.0
Hereford and Worcester ,4601210629,7029494,52.15,-2.5,1.0,0.0,1.0
Ipswich ,4601240077,7012004,52.0667,1.1667,1.0,0.0,1.0
Islip ,4601240095,1029678,51.8333,-1.2333,1.0,0.0,1.0
Isleworth ,4601240113,7012090,51.4667,-.3333,0.0,1.0,0.0
Jarrow ,4601270001,7010023,54.9833,-1.4833,0.0,1.0,0.0
Keith ,4601300013,1050775,57.5333,-2.9333,1.0,0.0,1.0
Kenmore ,4601300035,1050779,56.5833,-4,0.0,1.0,0.0
Kingston-Upon-Hull ,4601300168,7010370,53.75,-.3333,1.0,0.0,1.0
Kirkcaldy ,4601300216,7009919,56.1167,-3.1667,2.0,0.0,1.0
Knutsford ,4601300272,1029771,53.3,-2.3833,1.0,0.0,1.0
Kent ,4601300281,7008153,51.2167,.65,3.0,0.0,1.0
Kensington ,4601300283,4012698,51.5,-.1833,1.0,1.0,0.0
Kentish Town ,4601300285,7029205,51.555561,-0.13934,0.0,1.0,0.0
Knightsbridge ,4601300286,7029207,51.499401,-0.16783,0.0,1.0,0.0
Lambourne ,4601330021,4006084,51.6333,.1167,0.0,1.0,0.0
Leeds ,4601330121,7010442,53.8,-1.542,2.0,1.0,1.0
Leicester ,4601330131,7010948,52.6333,-1.1333,1.0,0.0,1.0
Leigh ,4601330132,7010532,53.5,-2.55,1.0,0.0,1.0
Leith ,4601330143,7009547,55.95,-3.1667,1.0,1.0,0.0
Lewes ,4601330175,7011444,50.8667,.0167,0.0,1.0,0.0
Lincoln ,4601330196,7010723,53.2333,-.5333,1.0,0.0,1.0
Littlebury ,4601330249,7026263,52.0333,.2,1.0,0.0,1.0
Liverpool ,4601330347,7010597,53.4167,-3,1.0,0.0,1.0
London ,4601330462,7011781,51.5,-.1667,111.0,256.0,0.0
Liverpool urban district ,4601330614,1003614,53.4167,-3,1.0,1.0,0.0
Lambeth ,4601330615,7018923,51.5,-.0833,1.0,2.0,0.0
Lincolnshire ,4601330616,7008157,53.1667,-.3333,1.0,0.0,1.0
Lancashire ,4601330617,7008154,53.7,-2.6667,1.0,1.0,0.0
Maidstone ,4601360023,7011704,51.2833,.5333,2.0,1.0,1.0
Malton ,4601360033,7010066,54.1333,-.8,1.0,0.0,1.0
Margate ,4601360075,7011535,51.3833,1.4167,0.0,2.0,0.0
Marlborough ,4601360093,1029982,51.4333,-1.7167,0.0,1.0,0.0
Meopham ,4601360207,7011587,51.3833,.3667,1.0,0.0,1.0
Middlesex ,4601360260,7012288,51.55615,-0.259685,1.0,0.0,1.0
Monkton ,4601360356,4007330,51.35,1.2833,1.0,0.0,1.0
Moray ,4601360473,5000451,57.5,-3.1667,1.0,0.0,1.0
Nailsea ,4601390002,7011204,51.4333,-2.7167,1.0,0.0,1.0
Nantwich ,4601390008,7010663,53.0667,-2.5333,1.0,0.0,1.0
Narford ,4601390012,4007698,52.84145,-2.30546,0.0,1.0,0.0
Newark-on-Trent ,4601390063,7010708,53.067,-.813,1.0,0.0,1.0
Newcastle upon Tyne ,4601390087,7012026,54.9833,-1.5833,1.0,1.0,0.0
Newington ,4601390104,1030165,51.0833,1.1333,0.0,1.0,0.0
Newmarket ,4601390116,7010941,52.25,.4167,1.0,0.0,1.0
Northampton ,4601390200,7010911,52.25,-.8833,0.0,1.0,0.0
North Mimms ,4601390246,4007980,51.737715,-0.206561,1.0,0.0,1.0
Northumbria ,4601390274,7012294,52.84145,-2.30546,1.0,0.0,1.0
Norwich ,4601390296,7012005,52.6333,1.3,2.0,3.0,0.0
Nottingham ,4601390298,7012006,52.9667,-1.1667,1.0,0.0,1.0
Nottinghamshire ,4601390312,7008167,53.0167,-1,1.0,1.0,0.0
North Yorkshire ,4601390315,7008166,54.2167,-1.4167,1.0,0.0,1.0
Northumberland ,4601390316,7008165,55.25,-2,2.0,1.0,1.0
Norfolk county ,4601390320,7008160,52.6667,1,1.0,0.0,1.0
Ormskirk ,4601420071,1030242,53.5833,-2.9,1.0,0.0,1.0
Oxford ,4601420127,7011931,51.7667,-1.25,5.0,8.0,0.0
Orkney ,4601420141,7009907,59,-3,1.0,0.0,1.0
Penicuik ,4601450077,7009548,55.8167,-3.2333,0.0,2.0,0.0
Peterborough ,4601450113,7010809,52.568,-.237,1.0,0.0,1.0
Peterhead ,4601450115,7009790,57.5,-1.7833,1.0,0.0,1.0
Plympton ,4601450176,1030334,50.3833,-4.05,1.0,0.0,1.0
Porlock ,4601450215,7011260,51.2333,-3.6,1.0,1.0,0.0
Potterne ,4601450263,5000947,51.3167,-2,1.0,1.0,0.0
Preston ,4601450292,7010427,53.7667,-2.7,1.0,1.0,0.0
Prestonpans ,4601450297,7009551,55.9333,-2.9667,0.0,1.0,0.0
Putney ,4601450337,7012091,51.4667,-.2333,0.0,1.0,0.0
Powick ,4601450345,7029280,52.160591,-2.24964,1.0,0.0,1.0
Raunds ,4601510052,7010907,52.3333,-.5333,1.0,0.0,1.0
Richmond ,4601510127,7012405,54.4,-1.7333,0.0,2.0,0.0
Scotland ,4601540000,7002444,57,-4,8.0,4.0,1.0
Saint David's ,4601540023,7008839,51.9,-5.2833,0.0,1.0,0.0
Salle ,4601540066,7028587,52.783,1.118,1.0,0.0,1.0
Settle ,4601540222,1030576,54.0667,-2.283,1.0,0.0,1.0
Shrewsbury ,4601540350,7014597,52.7167,-2.75,1.0,0.0,1.0
Sidbury ,4601540360,7025723,50.7167,-3.2167,1.0,0.0,1.0
Southampton ,4601540482,7011385,50.9,-1.4,2.0,2.0,0.0
Stalbridge ,4601540617,1030716,50.9667,-2.3833,0.0,1.0,0.0
Stamford ,4601540625,7010743,52.65,-.4833,1.0,0.0,1.0
Stockport ,4601540732,7010560,53.4,-2.15,0.0,1.0,0.0
Stratford-upon-Avon ,4601540826,7010956,52.2,-1.6833,1.0,0.0,1.0
Sudbury ,4601540876,7012014,52.0333,.7333,1.0,0.0,1.0
Sussex ,4601540893,7008133,50.944811,-0.044865,2.0,0.0,1.0
Sutton Coldfield ,4601540905,1030803,52.5667,-1.8,0.0,1.0,0.0
Soho ,4601540983,4012708,51.5167,-.1333,0.0,1.0,0.0
Surrey ,4601540987,7008175,51.2,-.05,1.0,2.0,0.0
Somerset ,4601540993,7012032,51.0833,-3,2.0,1.0,1.0
Suffolk ,4601540996,7008185,52.1667,1.0167,0.0,1.0,0.0
Southwark ,4601540999,7011786,51.5,-.1,1.0,1.0,0.0
Swansea ,4601541003,7018973,51.6333,-3.95,1.0,0.0,1.0
South Lanarkshire ,4601541009,7019090,55.6667,-3.75,1.0,0.0,1.0
Taunton ,4601570055,7011240,51.0167,-3.1,1.0,1.0,0.0
Thirsk ,4601570119,7010060,54.2333,-1.3333,1.0,0.0,1.0
Tothill ,4601570279,7028177,53.301,.118,0.0,1.0,0.0
Trowbridge ,4601570318,1030931,51.3333,-2.2167,1.0,0.0,1.0
Twiss Green ,4601570354,1030937,53.45,-2.5333,1.0,0.0,1.0
Twickenham ,4601570377,7012095,51.45,-.35,0.0,2.0,0.0
Tayside ,4601570389,7008089,56.5,-3.5,0.0,1.0,0.0
Warwick ,4601660095,7010957,52.2833,-1.5667,1.0,0.0,1.0
Wells ,4601660148,7011241,51.2167,-2.65,1.0,0.0,1.0
Wem ,4601660158,1031040,52.85,-2.7333,1.0,0.0,1.0
West Wycombe ,4601660304,7011903,51.65,-.8167,0.0,1.0,0.0
Whaddon ,4601660311,7025122,52,-.8167,0.0,1.0,0.0
Whitehaven ,4601660352,7010207,54.55,-3.5833,2.0,1.0,1.0
Wilmslow ,4601660440,1031142,53.3333,-2.25,1.0,1.0,0.0
Windsor ,4601660465,7011919,51.4833,-.6333,0.0,1.0,0.0
Wingham ,4601660471,1031160,51.2833,1.2167,1.0,0.0,1.0
Wivenhoe ,4601660524,1031180,51.8667,.9667,1.0,0.0,1.0
Wolverley ,4601660541,4012349,52.41074,-2.25495,1.0,0.0,1.0
Woodstock ,4601660570,7011937,51.8667,-1.35,1.0,0.0,1.0
Woolland ,4601660587,7026014,50.85,-2.3167,1.0,0.0,1.0
Worcester ,4601660603,7015155,52.1833,-2.2167,0.0,4.0,0.0
Wotton ,4601660627,1031228,51.2,-.3833,1.0,1.0,0.0
Wykeham ,4601660662,4012398,52.81855,-0.1086,1.0,0.0,1.0
Westminster ,4601660675,7018905,51.485,-.135,1.0,1.0,0.0
Wiltshire ,4601660678,7008180,51.2667,-1.85,1.0,0.0,1.0
Warwickshire ,4601660684,7008178,52.2,-1.6167,1.0,2.0,0.0
Yarmouth ,4601720008,1031247,50.7,-1.4833,0.0,1.0,0.0
Yeaveley ,4601720024,7025353,52.95,-1.7167,1.0,0.0,1.0
York ,4601720031,7011995,53.9667,-1.0833,3.0,6.0,0.0
Serbia and Montenegro ,4720000000,1000102,44,21,2.0,0.0,1.0
Serbia ,4720540000,7006669,44,21,2.0,0.0,1.0
Sremski Karlovci ,4720540012,7015483,45.1833,19.9333,0.0,1.0,0.0
Barbados ,5031000000,7004770,13.1667,-59.5333,0.0,1.0,0.0
Qu¨¦bec ,5060480003,7013095,46.8333,-71.25,1.0,2.0,0.0
Antigua Guatemala ,5182000004,7005496,14.5667,-90.7333,5.0,3.0,1.0
Esquipulas ,5182120010,1016657,14.6,-89.3667,0.0,1.0,0.0
Jamaica ,5270000000,7005556,18.25,-77.5,0.0,1.0,0.0
Mexico ,5361000000,7005560,23,-102,1.0,2.0,0.0
Mexico City ,5361060135,7007227,19.434167,-99.138611,4.0,10.0,0.0
Guadalajara ,5361180025,7007110,20.666667,-103.333333,1.0,0.0,1.0
Oaxaca state ,5361420000,7005591,17,-96.5,1.0,0.0,1.0
Puebla ,5361450095,7007118,19.05,-98.2,0.0,1.0,0.0
Le¨®n ,5391330009,1018742,12.4,-86.8667,0.0,1.0,0.0
Anne Arundel county ,5600005454,7014651,39,-76.6167,0.0,1.0,0.0
Boston ,5600037778,7013445,42.35,-71.05,4.0,7.0,0.0
Charleston ,5600064778,7013582,32.7667,-79.9167,0.0,2.0,0.0
Charlestown ,5600073397,7015010,42.3667,-71.05,1.0,0.0,1.0
Dartmouth ,5600090640,2049654,41.6167,-70.9833,1.0,0.0,1.0
Dorchester ,5600095305,7013575,42.2833,-71.0667,1.0,1.0,0.0
Eddystone ,5600121638,7017909,39.85,-75.3333,0.0,1.0,0.0
Hawaii ,5600210000,7007249,20,-157.8333,0.0,1.0,0.0
Hendon ,5600213587,2099525,35.4167,-85.2333,0.0,1.0,0.0
Leicester ,5600333240,2050001,42.2333,-71.9,1.0,0.0,1.0
Maryland ,5600360001,7007516,39,-76.8333,0.0,1.0,0.0
Mount Vernon ,5600370300,2111632,38.7,-77.0833,0.0,1.0,0.0
Munich ,5600370716,2077867,48.6667,-98.8333,0.0,1.0,0.0
New York state ,5600390005,7007568,43,-75,0.0,1.0,0.0
Newbury ,5600391209,7014219,42.7667,-70.8833,1.0,0.0,1.0
Newport ,5600392011,7014221,41.4833,-71.3,0.0,1.0,0.0
New York City ,5600392409,7007567,40.7,-74,2.0,1.0,1.0
Norwich ,5600394458,7014246,41.5167,-72.0667,0.0,1.0,0.0
Oyster Bay ,5600423814,7014326,40.85,-73.5167,1.0,0.0,1.0
Perth Amboy ,5600452959,7014402,40.5,-74.25,0.0,1.0,0.0
Philadelphia ,5600453283,7014406,39.95,-75.15,1.0,3.0,0.0
Plaistow ,5600455137,2063722,42.8333,-71.0833,0.0,1.0,0.0
Stettin ,5600551050,2693937,44.9667,-89.8,1.0,0.0,1.0
Tappan ,5600570482,7014565,41.0167,-73.9333,0.0,1.0,0.0
Thompson ,5600571925,2017459,41.95,-71.85,0.0,1.0,0.0
Woodstock ,5600668743,7014643,41.9333,-71.9667,1.0,0.0,1.0
Westchester county ,5600669330,7014612,41.1167,-73.8,0.0,1.0,0.0
Westmoreland county ,5600669333,1003018,38.1167,-76.7833,1.0,0.0,1.0
Cochabamba ,7030060028,1020283,-17.4333,-66.1667,1.0,0.0,1.0
Potos¨ª ,7030450021,7017074,-19.5833,-65.75,0.0,1.0,0.0
Bel¨¦m ,7031030090,7005429,-1.45,-48.4833,0.0,1.0,0.0
Bahia ,7031030206,1001834,-11,-42,0.0,1.0,0.0
Ouro Pr¨ºto ,7031420035,7031504,-20.383,-43.5,0.0,1.0,0.0
Santiago ,7060540034,7002591,-33.45,-70.666667,0.0,1.0,0.0
Sevilla ,7061540052,1024012,4.2667,-75.9667,0.0,1.0,0.0
Quito ,7120480001,7004714,-0.2333,-78.5,1.0,1.0,0.0
Cuzco ,7451060109,7005819,-13.5167,-71.9667,1.0,1.0,0.0
Lima ,7451330031,7005821,-12.05,-77.05,0.0,4.0,0.0
Caracas ,7630060016,7005022,10.5,-66.9167,1.0,1.0,0.0
