city,cityID,TGNID,latitude,longitude,birth,death,bir_sour
North Africa ,1000390000,7016886,20.526755,10.865315,1.0,0.0,1.0
Algeria ,1001000000,7016752,28,3,0.0,3.0,0.0
Algiers ,1001000031,7001314,36.8333,3,4.0,12.0,0.0
Annaba ,1001000034,7001313,36.9167,7.7833,0.0,1.0,0.0
Kabylie ,1001300001,1112028,36.25,5,0.0,1.0,0.0
Mestghanem ,1001360015,7001318,35.85,.1167,1.0,0.0,1.0
Oran ,1001420002,7001246,35.75,-.6333,1.0,0.0,1.0
Qacentina ,1001480001,7001315,36.3667,6.6167,1.0,0.0,1.0
Souq Ahras ,1001540022,1087562,36.2333,8,1.0,0.0,1.0
S¨¦tif ,1001540024,7001320,36.15,5.4333,2.0,1.0,1.0
Arquip¨¦lago de Cabo Verde ,1060000000,7001632,16,-24,1.0,0.0,1.0
Kabeya ,1063300006,1089031,-5.6667,27.9667,1.0,0.0,1.0
Lubumbashi ,1063330060,7000576,-11.6833,27.4833,0.0,1.0,0.0
Gonder ,1122180020,1089826,12.65,37.4833,0.0,1.0,0.0
Egypt ,1123000000,7016833,27,30,2.0,0.0,1.0
Al _Alamayn ,1123000042,7001192,30.8167,28.95,0.0,1.0,0.0
Alexandria ,1123000108,7001188,31.2,29.9,7.0,0.0,1.0
Cairo ,1123060000,7001215,30.05,31.25,3.0,11.0,0.0
Luxor ,1123330001,7017995,25.6833,32.65,0.0,2.0,0.0
Suez ,1123540000,7001164,29.9667,32.55,0.0,1.0,0.0
Franceville ,1180150001,1090007,-1.6667,13.5167,2.0,0.0,1.0
Nairobi ,1300390003,7001116,-1.2833,36.8333,1.0,0.0,1.0
Nyeri ,1300390014,1090535,-0.4167,36.9333,0.0,1.0,0.0
Al Khums province ,1332000002,7000609,31.65,14.2667,1.0,0.0,1.0
Labdah ,1332330000,7000642,32.9833,14.25,1.0,0.0,1.0
Boujad ,1360030016,1091364,32.8,-6.4333,1.0,0.0,1.0
Casablanca ,1360060002,7000451,33.65,-7.5833,0.0,2.0,0.0
Marakesh ,1360360003,7000354,31.8167,-8,0.0,1.0,0.0
Rabat ,1360510001,7001584,34.0333,-6.85,0.0,1.0,0.0
Tanger ,1360570016,7000442,35.8,-5.8333,0.0,3.0,0.0
Taourirt ,1360570019,1091453,34.4167,-2.8833,1.0,0.0,1.0
T¨¦touan ,1360570030,7000464,35.5667,-5.3667,0.0,1.0,0.0
Bamako ,1363030007,7000468,12.6667,-7.9833,1.0,0.0,1.0
Port Louis ,1364450000,1091323,-20.1667,57.5,1.0,0.0,1.0
Tete ,1365570003,7000396,-16.1667,33.5833,1.0,0.0,1.0
Ife ,1392240009,7000498,7.05,4.5,1.0,0.0,1.0
Sudan ,1540000000,1000201,15,30,1.0,1.0,0.0
El Abbasiya ,1540000004,1094115,12.2,31.3167,0.0,1.0,0.0
Khartoum ,1540300031,7001619,15.55,32.5333,0.0,2.0,0.0
Saint Helena ,1541000000,7005277,-15.95,-5.7,0.0,1.0,0.0
Saint-Louis ,1543540001,7000426,16.0333,-16.5,1.0,0.0,1.0
Aberdeen ,1547000003,1092799,-32.4833,24.0667,1.0,0.0,1.0
Amsterdam ,1547000027,1092823,-26.6333,30.6667,2.0,3.0,0.0
Berlin ,1547030031,1092869,-32.8833,27.5833,1.0,4.0,0.0
Brandfort ,1547030082,7000815,-28.7,26.4667,1.0,0.0,1.0
Cape Province ,1547060007,7016540,-31,23,0.0,2.0,0.0
Cape Town ,1547060008,7000811,-33.9333,18.4667,2.0,6.0,0.0
Durban ,1547090049,7000801,-29.8833,31,1.0,2.0,0.0
Grahamstown ,1547180035,1093112,-33.3,26.5333,0.0,1.0,0.0
Haenertsburg ,1547210000,1093133,-24,29.8333,0.0,1.0,0.0
Johannesburg ,1547270007,7000809,-26.1667,28.0333,2.0,5.0,0.0
Kimberley ,1547300025,7000860,-28.75,24.7667,0.0,1.0,0.0
Lambton ,1547330009,1093299,-26.25,28.1667,1.0,0.0,1.0
Malmesbury ,1547360013,1093346,-33.4667,18.7167,1.0,0.0,1.0
Plettenbergbaai ,1547450037,1093512,-34.0833,23.35,0.0,1.0,0.0
Port Shepstone ,1547450048,1093522,-30.7333,30.4667,0.0,1.0,0.0
Potchefstroom ,1547450050,1093525,-26.7,27.1,1.0,0.0,1.0
Pretoria ,1547450053,7000810,-25.75,28.2,2.0,5.0,0.0
Queenstown ,1547480000,1093541,-31.9,26.8833,1.0,0.0,1.0
Riversdale ,1547510026,1093567,-34.0833,21.25,1.0,1.0,0.0
Somerset East ,1547540048,1093640,-32.7333,25.5833,1.0,0.0,1.0
Standerton ,1547540061,1093654,-26.95,29.2333,1.0,0.0,1.0
Strand ,1547540080,1093673,-34.1,18.8333,0.0,1.0,0.0
Verulam ,1547630024,1093754,-29.65,31.05,1.0,0.0,1.0
Worcester ,1547660052,1093832,-33.65,19.4333,1.0,0.0,1.0
Tunisia ,1572000000,1000205,34,9,1.0,0.0,1.0
Bizerte ,1572030011,7001083,37.3,9.8667,0.0,1.0,0.0
Sidi Bou Said ,1572540010,7018626,36.86673,10.34176,0.0,1.0,0.0
Tunis ,1572570015,7001016,36.8333,10.2167,1.0,2.0,0.0
Kabale ,1600300002,1095046,-1.25,29.9667,0.0,1.0,0.0
Harare ,1751210001,7001737,-17.8333,31.05,0.0,2.0,0.0
French Southern and Antarctic Territories ,2150000000,1000163,-49.5,69.5,1.0,0.0,1.0
Armenia historical region ,3000000004,7004538,40.066175,45.039894,1.0,0.0,1.0
Mesopotamia ,3000360001,7001554,34,44,0.0,1.0,0.0
Her¨¡t province ,3001210001,1001293,34.5,62,3.0,2.0,1.0
Azerbaijan ,3002000000,7006646,40.5,47.5,1.0,0.0,1.0
Armenia ,3003000000,7006651,40,45,4.0,0.0,1.0
Yerevan ,3003720004,7012650,40.181,44.508,0.0,2.0,0.0
Chittagong ,3031060022,7002575,22.3333,91.8333,0.0,1.0,0.0
Dhaka ,3031090016,7002586,23.7167,90.3667,0.0,1.0,0.0
Kishorganj ,3031300036,1065780,24.4333,90.7667,1.0,0.0,1.0
Cambodia ,3060000000,1000109,13,105,0.0,1.0,0.0
Si_mr¨¦ab ,3060540007,1066431,13.3667,103.85,1.0,0.0,1.0
Nicosia ,3061390001,7002345,35.1667,33.3667,1.0,0.0,1.0
China ,3062000000,1000111,35,105,3.0,0.0,1.0
Beijing ,3062030302,7001758,39.9167,116.4333,1.0,10.0,0.0
Changzhou ,3062060190,7001471,31.7833,119.95,0.0,1.0,0.0
Cheng'an ,3062060231,1067162,36.45,114.6833,1.0,0.0,1.0
Chengdu ,3062060234,7001761,30.666,104.066,0.0,1.0,0.0
Canton ,3062060380,7018040,23.1333,113.3333,2.0,1.0,1.0
Dipu ,3062090510,7023837,30.6333,119.6833,1.0,0.0,1.0
Dongping ,3062090594,1138922,35.9667,116.3333,1.0,0.0,1.0
Foshan ,3062150138,7018049,23.05,113.1333,1.0,0.0,1.0
Guilin ,3062180346,7001799,25.35,110.1833,1.0,0.0,1.0
Henan ,3062210003,7016672,34,114,1.0,0.0,1.0
Hubei ,3062210005,7002078,31,112,0.0,1.0,0.0
Hong Kong ,3062210007,7004542,22.25,114.1667,1.0,2.0,0.0
Haiyang ,3062210049,1068554,36.75,121.25,1.0,0.0,1.0
Hangzhou ,3062210092,7001806,30.3,120.1167,1.0,2.0,0.0
Harbin ,3062210115,7002066,45.75,126.6833,1.0,0.0,1.0
Jiading ,3062270010,1069099,31.4,121.25,1.0,0.0,1.0
Kunshan ,3062300106,1069581,31.35,120.95,1.0,0.0,1.0
Lanxi ,3062330073,1069668,29.2,119.45,1.0,0.0,1.0
Lin'an ,3062330261,1069840,30.2667,119.7167,0.0,1.0,0.0
Luzhou ,3062330800,1070255,28.9167,105.4167,1.0,0.0,1.0
Meishan ,3062360181,1070405,30.0333,103.8167,1.0,0.0,1.0
Nanjing ,3062390068,7001892,32.05,118.7833,0.0,1.0,0.0
Shandong ,3062540001,7002085,36,118,1.0,0.0,1.0
Shanghai ,3062540231,7023856,31.1,121.3667,1.0,2.0,0.0
Shanghang ,3062540233,1071450,25.05,116.4167,1.0,0.0,1.0
Shantou ,3062540323,7001917,23.3833,116.65,1.0,0.0,1.0
Suzhou ,3062540950,7018059,31.35,120.6667,1.0,2.0,0.0
Xiangcheng ,3062690061,1139797,31.4833,120.7167,1.0,1.0,0.0
Xiangtan ,3062690079,1072782,27.85,112.9,1.0,0.0,1.0
Xiaogan ,3062690127,1072825,30.9167,113.9,1.0,0.0,1.0
Xuzhou ,3062690709,1073277,34.2667,117.1833,1.0,0.0,1.0
Yangjiang ,3062720076,1073342,21.8667,111.8667,1.0,0.0,1.0
Yangzhou ,3062720139,7001999,32.3667,119.3667,0.0,2.0,0.0
Yixing ,3062720388,1073603,31.3667,119.75,1.0,0.0,1.0
Zhejiang ,3062750000,7002076,29,120,1.0,0.0,1.0
Georgia ,3180000000,7006653,42,43.5,1.0,0.0,1.0
Kutaisi ,3180300019,7010343,42.25,42.7333,1.0,0.0,1.0
Manglisi ,3180360002,7010194,41.7167,44.4167,1.0,0.0,1.0
Mirzaani ,3180360009,1057036,41.3667,46.1667,1.0,0.0,1.0
Tbilisi ,3180570000,7012268,41.7167,44.8167,7.0,6.0,1.0
Baghdad ,3240030004,7002482,33.35,44.4167,1.0,2.0,0.0
Babylonia ,3240030008,7013255,33.240526,43.68985,0.0,1.0,0.0
India ,3241000000,7000198,20,77,5.0,1.0,1.0
Assam ,3241000004,1001832,26,92,0.0,1.0,0.0
_gra ,3241000028,7001493,27.183,78.016,0.0,1.0,0.0
Bangalore ,3241030113,7001504,12.9667,77.5833,1.0,1.0,0.0
Bankura ,3241030120,1074534,23.2333,87.0833,1.0,0.0,1.0
Behala ,3241030229,1074711,22.5,88.3333,1.0,0.0,1.0
Mumbai ,3241030431,7001518,18.9333,72.85,1.0,2.0,0.0
Calcutta ,3241060002,7030776,22.5,88.3333,10.0,6.0,1.0
Chennai ,3241060081,7001562,13.0833,80.3,2.0,0.0,1.0
Delhi ,3241090070,7001535,28.6667,77.2167,2.0,1.0,1.0
Fatehpur ,3241150016,1140136,24.0833,87.7333,0.0,1.0,0.0
Goa ,3241180082,7018161,15.5167,73.9333,0.0,1.0,0.0
Hyderabad ,3241210097,7001541,17.3667,78.4333,1.0,0.0,1.0
Jaipur ,3241270019,7001544,26.8833,75.8333,1.0,0.0,1.0
Karnataka ,3241300000,1001882,14,76,1.0,0.0,1.0
K¨¡npur ,3241300079,7001527,26.466,80.349,0.0,1.0,0.0
Kapadvanj ,3241300085,1075754,23.05,73.15,1.0,0.0,1.0
Karel¨© ,3241300099,1075766,22.9167,79.0667,0.0,1.0,0.0
Kotagiri ,3241300295,1075934,11.35,76.7333,1.0,0.0,1.0
Lucknow ,3241330050,7001561,26.85,80.916,0.0,2.0,0.0
Murshidabad ,3241360257,1076286,24.1833,88.3167,0.0,1.0,0.0
Nagappattinam ,3241390012,7001571,10.75,79.8333,0.0,1.0,0.0
Nagar ,3241390014,1140177,32.2,77,0.0,1.0,0.0
Patna ,3241450101,7001575,25.6167,85.2,0.0,1.0,0.0
Th¨¡na ,3241570071,1077154,19.2,72.9667,0.0,1.0,0.0
Indonesia ,3242000000,1000116,-5,120,4.0,2.0,1.0
Bali ,3242030000,1001137,-8.5,115,0.0,1.0,0.0
Bandung ,3242030041,7002853,-6.95,107.5667,1.0,0.0,1.0
Jakarta ,3242270007,7002854,-6.1333,106.75,1.0,0.0,1.0
Madiun ,3242360002,1078051,-7.6167,111.55,1.0,0.0,1.0
Medan ,3242360064,1078112,3.5833,98.65,1.0,0.0,1.0
Ngawi ,3242390037,1078231,-7.3833,111.3667,1.0,0.0,1.0
Purworejo ,3242450173,1078411,-7.75,110.0667,1.0,0.0,1.0
Sindangbarang ,3242540138,1078585,-7.4333,107.0167,0.0,1.0,0.0
Surabaya ,3242540220,7003700,-7.2333,112.75,1.0,0.0,1.0
_r¨¡n ,3243000000,7000231,32,53,1.0,0.0,1.0
E_fah¨¡n province ,3243120001,1001228,32.8333,51.8333,0.0,1.0,0.0
E_fah¨¡n ,3243120005,7017459,32.6833,51.6833,0.0,1.0,0.0
Kashan ,3243300018,1079129,33.9833,51.5833,2.0,0.0,1.0
M¨¡zandar¨¡n ,3243360001,1001403,36.5,53.5,0.0,1.0,0.0
Mashhad ,3243360016,7002247,36.2667,59.5667,2.0,1.0,1.0
Neysh¨¡b¨±r ,3243390012,7002095,36.2167,58.8167,0.0,1.0,0.0
Qazv¨©n ,3243480009,1079247,36.2667,50,0.0,1.0,0.0
Sh¨©r¨¡z ,3243540044,7002148,29.6333,52.5667,1.0,1.0,0.0
Tabr¨©z ,3243570003,7002156,38.0833,46.3,3.0,1.0,1.0
Tehr¨¡n ,3243570017,7002157,35.6667,51.4333,1.0,0.0,1.0
Israel ,3244000000,1000119,31.5,34.75,0.0,1.0,0.0
Ashdod ,3244000021,6000548,30.64981,34.871599,1.0,0.0,1.0
Haifa ,3244210016,7001362,32.8167,34.9833,0.0,1.0,0.0
Jerusalem ,3244270007,7001371,31.7667,35.2333,1.0,9.0,0.0
Ramla ,3244510009,7001366,31.9333,34.8667,0.0,1.0,0.0
Tel Aviv district ,3244570000,1000939,32.0833,34.8,0.0,4.0,0.0
Tel Aviv-Jaffa ,3244570005,7001369,32.0833,34.7667,0.0,4.0,0.0
Tsefat ,3244750000,7032018,32.9667,35.5,2.0,1.0,1.0
Jordan ,3270000000,1000121,31,36,0.0,1.0,0.0
As-Sal_ ,3270000045,1081875,32.0333,35.7167,1.0,0.0,1.0
Japan ,3271000000,1000120,36,138,3.0,1.0,1.0
Aizu-bange ,3271000023,1079764,37.5667,139.8167,1.0,0.0,1.0
Akita ,3271000048,7004842,39.7333,140.0833,0.0,1.0,0.0
Aomori ,3271000077,7004470,40.8333,140.7167,3.0,0.0,1.0
Ashiya ,3271000113,1140330,34.7,135.2667,0.0,1.0,0.0
Awaji ,3271000130,1079845,34.5833,135.0167,1.0,0.0,1.0
Aichi prefecture ,3271000144,7016579,35,137.25,1.0,1.0,0.0
Aomori prefecture ,3271000146,7000273,40.8333,140.75,1.0,0.0,1.0
Chigasaki ,3271060005,1079883,35.3333,139.4,0.0,1.0,0.0
Chiyoda ,3271060017,1079895,34.6833,132.5333,1.0,0.0,1.0
Fukuoka ,3271150035,7004478,33.65,130.35,1.0,1.0,0.0
Gifu ,3271180009,7004481,35.45,136.7667,1.0,0.0,1.0
Gifu prefecture ,3271180032,1000977,35.75,137,1.0,0.0,1.0
Hagi ,3271210012,7004483,34.4167,131.3667,0.0,1.0,0.0
Hakodate ,3271210020,7004843,41.7667,140.7333,1.0,0.0,1.0
Hara ,3271210048,1140365,35.9667,138.2333,1.0,1.0,0.0
Harima ,3271210053,1080057,34.7,134.8833,2.0,0.0,1.0
Hokkaid¨­ prefecture ,3271210202,1000985,44.1667,143,1.0,0.0,1.0
Hy¨­go prefecture ,3271210203,7016675,35,135,1.0,0.0,1.0
Ibaraki prefecture ,3271210204,1000987,36.5,140.5,1.0,0.0,1.0
Iwate prefecture ,3271240161,7016687,39.5833,141.4167,1.0,0.0,1.0
Kagoshima prefecture ,3271270013,1000993,30,130,1.0,0.0,1.0
Kagoshima ,3271300011,7004844,31.6167,130.5333,4.0,0.0,1.0
Kamakura ,3271300037,1080374,35.3167,139.55,0.0,3.0,0.0
Kameoka ,3271300041,1080377,35.0333,135.5833,2.0,1.0,1.0
Kanazawa ,3271300109,7004554,36.5833,136.6333,2.0,0.0,1.0
Kawagoe ,3271300181,1080492,35.9167,139.5,1.0,0.0,1.0
Kobe ,3271300286,7004560,34.6667,135.2,2.0,0.0,1.0
Koga ,3271300298,7004561,36.2,139.7,1.0,0.0,1.0
Kumamoto ,3271300374,7004598,32.8333,130.7,0.0,1.0,0.0
Kurume ,3271300411,7004601,33.3333,130.4833,2.0,0.0,1.0
Kuwana ,3271300430,7004602,35.0667,136.6667,0.0,1.0,0.0
Kyoto ,3271300435,7004603,35,135.75,24.0,25.0,0.0
Kanagawa prefecture ,3271300439,7016696,35.5,139.5,0.0,2.0,0.0
Kumamoto prefecture ,3271300441,1000997,32.5,130.6667,0.0,1.0,0.0
Nagasaki ,3271390020,7004735,32.75,129.8667,0.0,1.0,0.0
Nagoya ,3271390032,7004736,35.1333,136.8833,2.0,1.0,1.0
Nanao ,3271390088,1080963,37.05,136.9667,1.0,0.0,1.0
Niigata ,3271390135,7004740,37.9667,139.0333,2.0,0.0,1.0
Nishinomiya ,3271390160,7004742,34.7167,135.3333,0.0,1.0,0.0
Nagano prefecture ,3271390206,1001010,36,138,2.0,1.0,1.0
Nagasaki prefecture ,3271390207,7000276,32.8333,129.9167,2.0,0.0,1.0
Okayama ,3271420084,7004752,34.6667,133.9,1.0,0.0,1.0
Okazaki ,3271420085,7004753,34.9667,137.1667,1.0,0.0,1.0
_saka ,3271420146,7004756,34.6667,135.5,1.0,0.0,1.0
Osaka ,3271420147,1081126,35.95,137.2833,5.0,1.0,1.0
Okayama prefecture ,3271420199,1001015,35,134,1.0,0.0,1.0
Fukuoka prefecture ,3271450002,1000975,33.75,130.5,0.0,1.0,0.0
Shido ,3271540130,1081282,34.3167,134.1667,1.0,0.0,1.0
Shimonoseki ,3271540171,7004468,33.9833,130.9667,1.0,0.0,1.0
Shiga prefecture ,3271540286,7000277,35.25,136,1.0,1.0,0.0
Tanigumi ,3271570103,1081509,35.5167,136.6,1.0,0.0,1.0
Tawara ,3271570124,1081527,34.45,135.95,0.0,1.0,0.0
Tokuyama ,3271570169,1081558,34.0667,131.8,0.0,1.0,0.0
Tokyo ,3271570170,7004472,35.75,139.5,27.0,53.0,0.0
Toyama ,3271570204,7004860,36.7,137.2333,1.0,0.0,1.0
Yamaguchi prefecture ,3271660026,1001040,34.3333,131.5,2.0,0.0,1.0
Yamagata ,3271720025,7004834,38.2667,140.3167,1.0,0.0,1.0
Yame ,3271720053,1081759,33.4667,130.5667,0.0,1.0,0.0
Yokohama ,3271720095,7004836,35.4667,139.6333,2.0,3.0,0.0
Yugawara ,3271720139,1081819,35.15,139.0667,0.0,1.0,0.0
Bishkek ,3301030005,7017616,42.8833,74.7667,1.0,0.0,1.0
Kazakhstan ,3302000000,7014786,48,68,0.0,1.0,0.0
Petropavlovsk ,3302450012,1058364,54.8833,69.2167,2.0,0.0,1.0
Macau ,3360360002,1082660,22.2,113.55,0.0,2.0,0.0
Kuala Kedah ,3361300062,1082811,6.1,100.3,2.0,0.0,1.0
Maldives ,3362000000,7000331,3.2,73,0.0,1.0,0.0
Mandalay ,3364360011,7002169,21.95,96.0667,1.0,0.0,1.0
Kar¨¡chi ,3450300020,7002450,24.85,67.0333,0.0,1.0,0.0
Lahore ,3450330001,7001560,31.5667,74.3667,2.0,2.0,0.0
Rawalpindi ,3450510014,1083736,33.6667,73.1333,1.0,0.0,1.0
Philippines ,3451000000,1000135,13,122,0.0,1.0,0.0
Iloilo ,3451240013,1084264,10.7,122.5667,1.0,0.0,1.0
Leyte ,3451330004,1001388,10.8333,124.9167,0.0,1.0,0.0
Madrid ,3451360015,1084386,9.25,125.9833,0.0,1.0,0.0
Manila ,3451360058,7003706,14.6167,120.9667,1.0,0.0,1.0
Russia ,3510000000,7002435,60,47,14.0,1.0,1.0
Abramtsevo ,3510000017,7018692,56.2333,37.9667,0.0,1.0,0.0
Arkhangelskoye ,3510000275,1137219,53.25,37.7333,0.0,1.0,0.0
Arzamas ,3510000304,1052312,55.4,43.8,1.0,0.0,1.0
Astrakhan ,3510000318,7010106,46.3667,48.0667,0.0,1.0,0.0
Baltiysk ,3510030059,1052504,54.6833,19.9833,1.0,0.0,1.0
Barvikha ,3510030085,1052551,55.7333,37.2833,0.0,1.0,0.0
Bezhetsk ,3510030266,1052603,57.8167,36.6667,1.0,0.0,1.0
Borisoglebsk ,3510030469,1053021,51.3833,42.0333,2.0,0.0,1.0
Borovichi ,3510030483,7010117,58.3667,34,1.0,0.0,1.0
Buguruslan ,3510030530,1053128,53.6,52.5,1.0,0.0,1.0
Chernyanka ,3510060140,1051302,50.9333,37.8,1.0,0.0,1.0
Chita ,3510060172,7011559,52.05,113.5833,1.0,0.0,1.0
Dol'skoye ,3510090109,1053665,54.7833,36.4333,1.0,0.0,1.0
Engels ,3510120020,7010133,51.5,46.1167,1.0,0.0,1.0
Gatchina ,3510180014,1053959,59.5333,30.15,1.0,1.0,0.0
Gelendzhik ,3510180024,1053974,44.5667,38.1167,0.0,1.0,0.0
Groznyy ,3510180185,7012257,43.35,45.7,1.0,0.0,1.0
Gusev ,3510180221,7016781,48.4333,40.5,1.0,0.0,1.0
Gvardeysk ,3510180230,1054250,54.65,21.0167,1.0,0.0,1.0
Kagalnitskaya ,3510300028,1054862,46.8833,40.1667,1.0,0.0,1.0
Kaliningrad ,3510300047,7013050,54.6667,20.5,8.0,2.0,1.0
Kaluga ,3510300063,7010166,54.5167,36.2667,3.0,0.0,1.0
Kazan' ,3510300245,7015156,55.75,49.1667,4.0,1.0,1.0
Kholm ,3510300360,1053358,57.15,31.1833,1.0,0.0,1.0
Kholmogory ,3510300363,1053364,64.2,41.7,1.0,1.0,0.0
Khvalynsk ,3510300408,1053430,52.5,48.0667,1.0,0.0,1.0
Kirov ,3510300450,7014842,58.6333,49.6333,1.0,0.0,1.0
Kislovodsk ,3510300474,1055340,43.9333,42.7333,1.0,1.0,0.0
Kostroma ,3510300722,7010179,57.7667,40.9833,1.0,1.0,0.0
Krasnoyarsk ,3510300850,7014883,56.0833,92.7667,1.0,0.0,1.0
Krasnyj Cholm ,3510300870,1137767,54.1833,40.7,1.0,0.0,1.0
Kronshtadt ,3510300945,7013405,59.9833,29.75,3.0,0.0,1.0
Kursk ,3510301089,7010341,51.75,36.2333,5.0,1.0,1.0
Lomonosov ,3510330163,7010188,59.8333,29.8,1.0,0.0,1.0
Leningrad Oblast ,3510330261,7011572,59.9167,30.25,0.0,1.0,0.0
Malaya Vishera ,3510360057,1056726,58.8833,32.1333,1.0,0.0,1.0
Medvenka ,3510360201,1056915,51.4,36.1333,1.0,0.0,1.0
Moscow ,3510360392,7012974,55.75,37.7,88.0,156.0,0.0
Mozhaysk ,3510360410,1057060,55.4833,36.0333,1.0,0.0,1.0
Moscow Oblast ,3510360481,7011573,55.5,40,1.0,2.0,0.0
Moskva autonomous city ,3510360482,7018215,55.75,37.7,1.0,0.0,1.0
Nizhniy Novgorod ,3510390230,7011579,56.3333,44,2.0,0.0,1.0
Novocherkassk ,3510390329,7010230,47.4167,40.0833,4.0,0.0,1.0
Novodevichye ,3510390332,1057651,53.6167,48.8333,0.0,1.0,0.0
Omsk ,3510420100,7010238,55,73.3667,1.0,0.0,1.0
Orel ,3510420124,1058004,52.9667,36.0667,2.0,0.0,1.0
Palekh ,3510450011,7010242,56.8,41.85,1.0,0.0,1.0
Pargolovo ,3510450038,1058215,60.0667,30.3,0.0,1.0,0.0
Pavlovsk ,3510450068,7010243,59.6833,30.3833,1.0,0.0,1.0
Penza ,3510450102,7010246,53.1833,45,1.0,1.0,0.0
Pereslavl Zalesskiy ,3510450117,7010248,56.6667,38.8333,1.0,1.0,0.0
Perm ,3510450129,7010249,58.0167,56.1667,1.0,0.0,1.0
Pochinok ,3510450286,1058463,54.4,32.4667,1.0,0.0,1.0
Polotsk ,3510450369,1058551,52.7667,59.7333,1.0,0.0,1.0
Pushkin ,3510450534,7010262,59.7167,30.3667,1.0,5.0,0.0
Ramushevo ,3510510028,1058851,57.8333,31.6167,1.0,0.0,1.0
R'azan' ,3510510053,7011591,54.6333,39.7333,0.0,1.0,0.0
Repino ,3510510075,1058916,60.1667,29.8667,1.0,1.0,0.0
Riga ,3510510089,7010267,56.6667,106.1667,5.0,1.0,1.0
Romny ,3510510123,1058983,50.7167,129.3333,1.0,0.0,1.0
Rostov ,3510510136,7031860,57.188,39.406,1.0,0.0,1.0
Rostov-na-Donu ,3510510137,7010269,47.2333,39.7,2.0,0.0,1.0
Saint Petersburg ,3510540053,7010273,59.8833,30.25,90.0,137.0,0.0
Saratov ,3510540067,7010280,51.5667,46.0333,5.0,1.0,1.0
Serpukhov ,3510540201,7010282,54.8833,37.4167,2.0,1.0,1.0
Shadrinsk ,3510540230,1051521,56.1333,63.5333,1.0,0.0,1.0
Siberia ,3510540404,7011548,62.392035,-55.832018,1.0,1.0,0.0
Smolensk ,3510540484,7010288,54.8167,32.0667,4.0,0.0,1.0
Sochi ,3510540498,1059543,43.5833,39.7667,1.0,0.0,1.0
Sokolka ,3510540512,1059570,55.5667,51.5,1.0,0.0,1.0
Solikamsk ,3510540530,1059594,59.6667,56.75,1.0,0.0,1.0
Strel'na ,3510540768,1059854,59.85,30.0333,1.0,0.0,1.0
Sudzha ,3510540791,1059899,51.1833,35.2833,1.0,0.0,1.0
Sankt-Peterburg autonomous city ,3510540911,7018216,59.932739,30.306721,1.0,0.0,1.0
Taganrog ,3510570007,7012059,47.2333,38.9167,2.0,0.0,1.0
Tambov ,3510570039,7010298,52.7333,41.4667,2.0,0.0,1.0
Tarusa ,3510570067,1060164,54.7333,37.2333,0.0,1.0,0.0
Tobol'sk ,3510570209,7014917,58.25,68.2,1.0,0.0,1.0
Tomsk ,3510570240,7011601,56.5,85.0833,1.0,0.0,1.0
Torzhok ,3510570269,7010306,57.0333,34.85,1.0,0.0,1.0
Tula ,3510570354,7010310,54.1833,37.6333,1.0,0.0,1.0
Tver' ,3510570395,7012938,56.8167,35.95,1.0,0.0,1.0
Tyumen' ,3510570418,7011602,57.1833,65.4833,1.0,0.0,1.0
Tver' oblast ,3510570423,7012941,56.75,36.5,1.0,0.0,1.0
Ufa ,3510600016,7010312,54.75,55.9667,2.0,0.0,1.0
Voronezh ,3510630321,1061363,51.6667,39.2167,2.0,0.0,1.0
Vyborg ,3510630404,7010097,60.75,28.6833,2.0,0.0,1.0
Yekaterinburg ,3510720088,7017618,56.8667,60.5833,1.0,0.0,1.0
Yelabuga ,3510720097,1054658,55.8,52,1.0,0.0,1.0
Yelets ,3510720109,7017988,52.5833,38.5,1.0,0.0,1.0
Mecca ,3540360005,7003870,21.45,39.8167,0.0,1.0,0.0
Colombo ,3542060002,7002533,6.9167,79.8667,2.0,2.0,0.0
Kandy ,3542300001,7002518,7.2833,80.6667,1.0,0.0,1.0
Syria ,3543000000,1000140,35,38,1.0,0.0,1.0
Aleppo ,3543000102,7002252,36.2333,37.1667,1.0,1.0,0.0
Damascus ,3543090021,7002261,33.5,36.3167,1.0,0.0,1.0
South Korea ,3544000000,7000299,37,127.5,1.0,0.0,1.0
Ch'ungju ,3544060038,1082201,36.9667,127.9167,1.0,0.0,1.0
Haenam ,3544210001,1082233,34.5833,126.5833,1.0,1.0,0.0
Seoul ,3544540030,7002223,37.5333,127,2.0,1.0,1.0
Taipei ,3570570015,7004306,25.047,121.525,0.0,2.0,0.0
Bangkok ,3571030088,7000983,13.7333,100.5,1.0,1.0,0.0
Turkey ,3573000000,1000144,39,35,1.0,1.0,0.0
Ankara ,3573000092,7002349,39.9167,32.8333,1.0,3.0,0.0
Antalya ,3573000094,7002378,36.8833,30.7,0.0,1.0,0.0
Ayval_k ,3573000155,1086013,39.3,26.7,1.0,0.0,1.0
Beyo_lu ,3573030132,7002474,41.05,28.9667,0.0,1.0,0.0
_al ,3573060006,1085768,38.0833,29.3667,1.0,0.0,1.0
Erzurum ,3573120038,7017539,39.95,41.2833,1.0,0.0,1.0
Istanbul ,3573240047,7002473,41.0333,28.95,24.0,22.0,1.0
Manisa ,3573360018,7002582,38.6,27.4833,0.0,1.0,0.0
Rize ,3573510008,1086792,41.0333,40.5167,1.0,0.0,1.0
Izmir ,3573540000,7002543,38.4167,27.1667,4.0,1.0,1.0
Tokat ,3573570039,1086936,40.3167,36.5667,1.0,0.0,1.0
Trabzon ,3573570050,7002631,41,39.7167,1.0,0.0,1.0
_sk¨¹dar ,3573600021,1085853,41.0167,29.05,1.0,0.0,1.0
Uzbekistan ,3601000000,7006661,41,64,1.0,0.0,1.0
Bukhara ,3601030010,7016820,39.5,64.5,0.0,1.0,0.0
Fergana province ,3601150000,7012251,40.5,71.25,1.0,0.0,1.0
Nukus ,3601390007,1057847,42.8333,59.4833,0.0,1.0,0.0
Tashkent ,3601570003,7010300,41.2667,69.2167,3.0,1.0,1.0
Viet Nam ,3630000000,1000145,16,106,0.0,1.0,0.0
H_i Ph¨°ng ,3630210012,7001067,20.8667,106.6833,1.0,0.0,1.0
H¨¤ N_i ,3630210014,7001070,21.0167,105.8667,1.0,1.0,0.0
Hu¨¦ ,3630210029,7004240,16.4667,107.5833,1.0,0.0,1.0
Thai Binh province ,3630570001,7001061,20.5,106.3333,0.0,1.0,0.0
Bessarabia ,4000030002,7012146,54.322554,4.30165,1.0,0.0,1.0
Brabant ,4000030003,7003463,54.322554,4.30165,1.0,0.0,1.0
Bukovina ,4000030005,7012075,54.322554,4.30165,1.0,0.0,1.0
Czechoslovakia ,4000060002,1000065,54.322554,4.30165,1.0,0.0,1.0
Flanders, historical ,4000150000,7024097,49.8333,5.3333,5.0,0.0,1.0
Friesland ,4000150006,7003617,54.322554,4.30165,1.0,0.0,1.0
Galicia ,4000180000,7002787,49,22,1.0,0.0,1.0
Illyria ,4000240000,7016683,54.322554,4.30165,1.0,0.0,1.0
Lorraine ,4000330004,7024272,49,6,1.0,0.0,1.0
Lower Rhine ,4000330007,7013246,54.322554,4.30165,1.0,0.0,1.0
Macedonia ,4000360000,7001349,44.485653,26.167467,0.0,1.0,0.0
Prussia ,4000450005,7016786,54.322554,4.30165,7.0,0.0,1.0
Silesia ,4000540003,7007552,50.864519,16.82592,4.0,1.0,1.0
Soviet Union ,4000540008,6006211,58.675789,96.552085,3.0,1.0,1.0
Teschen ,4000570000,6005897,47.687557,9.687342,1.0,1.0,0.0
Upper Silesia ,4000600001,5000092,50.955826,15.919023,1.0,0.0,1.0
Austria ,4002000000,1000062,47.3333,13.3333,8.0,4.0,1.0
Absam ,4002000001,1025375,47.3,11.5,0.0,1.0,0.0
Admont ,4002000007,7003114,47.5833,14.4667,0.0,1.0,0.0
Aigen ,4002000014,1025385,48.65,13.9833,0.0,1.0,0.0
Altenburg ,4002000019,7003172,48.65,15.6167,1.0,0.0,1.0
Altheim ,4002000021,1025392,48.25,13.2333,1.0,0.0,1.0
Annaberg ,4002000032,7003393,47.8833,15.4,1.0,0.0,1.0
Aschach ,4002000042,1025409,48.3833,14.0333,1.0,0.0,1.0
Baden ,4002030005,7003183,48.0167,16.2333,4.0,1.0,1.0
Bad Goisern ,4002030009,1025429,47.6333,13.6167,1.0,1.0,0.0
Bad Ischl ,4002030012,1025432,47.7167,13.6333,0.0,1.0,0.0
Bad Sankt Leonhard im Lavanttal ,4002030016,7003060,46.9667,14.8,0.0,1.0,0.0
Bad V_slau ,4002030019,1025438,47.9667,16.2333,1.0,0.0,1.0
Bezau ,4002030027,1025447,47.4,9.9167,0.0,1.0,0.0
Braunau am Inn ,4002030042,7003283,48.2667,13.05,1.0,0.0,1.0
Bregenz ,4002030043,7003116,47.5167,9.7667,3.0,4.0,0.0
Brunn am Gebirge ,4002030053,1025470,48.1167,16.2833,0.0,1.0,0.0
Birgitz ,4002030056,7029472,47.233,11.283,0.0,2.0,0.0
Brunn ,4002030057,7030577,46.75,15.316,0.0,2.0,0.0
Deutschkreuz ,4002090004,1025481,47.6167,16.6167,0.0,1.0,0.0
Dornbirn ,4002090013,7003117,47.4167,9.7667,1.0,0.0,1.0
D¨¹rnstein ,4002090018,1099747,48.4,15.55,0.0,1.0,0.0
Eisenstadt ,4002120019,7003056,47.8333,16.5333,1.0,0.0,1.0
Engelhartszell ,4002120024,1025512,48.5167,13.75,0.0,1.0,0.0
Enns ,4002120025,7003295,48.2167,14.4667,1.0,0.0,1.0
Feldkirch ,4002150006,7003119,47.25,9.6333,2.0,1.0,1.0
Friedberg ,4002150029,1025550,47.45,16.05,1.0,0.0,1.0
Gmunden ,4002180023,7003274,47.9333,13.8,1.0,2.0,0.0
G_llersdorf ,4002180025,4004165,48.49358,16.11948,1.0,0.0,1.0
G_tzens ,4002180032,4004172,47.236031,11.31134,2.0,0.0,1.0
Grafenegg ,4002180034,4004487,48.42989,15.74851,1.0,0.0,1.0
Graz ,4002180039,7003097,47.0833,15.3667,13.0,15.0,0.0
Haag am Hausruck ,4002210001,1025632,48.1833,13.6333,1.0,0.0,1.0
Hall in Tirol ,4002210012,1025641,47.2833,11.5167,3.0,4.0,0.0
Hallstatt ,4002210013,7003272,47.55,13.65,1.0,1.0,0.0
Heiligenkreuz ,4002210026,4004909,48.05608,16.12797,0.0,1.0,0.0
Helfenberg ,4002210029,1025651,48.55,14.15,1.0,0.0,1.0
Hinterbr¨¹hl ,4002210038,1025659,48.0833,16.25,0.0,2.0,0.0
Imst ,4002240002,7003250,47.2333,10.75,3.0,0.0,1.0
Innsbruck ,4002240006,7003249,47.2667,11.4,25.0,15.0,1.0
Judenburg ,4002270006,7003111,47.1667,14.6667,1.0,0.0,1.0
Kaltenleutgeben ,4002300003,1025705,48.1333,16.2167,0.0,3.0,0.0
Kitzb¨¹hel ,4002300029,7003244,47.45,12.3833,2.0,6.0,0.0
Klagenfurt ,4002300030,7003084,46.6333,14.3333,5.0,0.0,1.0
Klosterneuburg ,4002300034,7003187,48.3167,16.3333,3.0,4.0,0.0
Kramsach ,4002300049,1025740,47.45,11.8667,1.0,0.0,1.0
Kufstein ,4002300059,7016924,47.6,12.1833,1.0,0.0,1.0
Lienz ,4002330040,7005620,46.85,12.8333,1.0,0.0,1.0
Linz ,4002330044,7003199,48.3167,14.3,8.0,5.0,1.0
Mannersdorf ,4002360004,1025821,47.9667,16.6,0.0,1.0,0.0
Mauerkirchen ,4002360027,1025838,48.1833,13.1333,1.0,1.0,0.0
Mauthausen ,4002360031,7012595,48.25,14.5167,0.0,2.0,0.0
Miesenbach ,4002360041,1025851,47.3667,15.7667,1.0,0.0,1.0
Mistelbach ,4002360044,7003177,48.5833,16.5833,1.0,0.0,1.0
M_dling ,4002360050,1025803,48.0667,16.3667,0.0,3.0,0.0
Molln ,4002360053,1025859,47.8833,14.25,0.0,1.0,0.0
Mondsee ,4002360056,7003277,47.8667,13.35,1.0,1.0,0.0
Murau ,4002360070,7003112,47.1333,14.1667,1.0,0.0,1.0
Nieder_sterreich ,4002390000,7003025,48.3333,15.75,3.0,0.0,1.0
Nauders ,4002390004,1025872,46.9,10.5167,2.0,0.0,1.0
Neumarkt ,4002390015,1025885,47.0833,14.4333,1.0,0.0,1.0
Neustift ,4002390021,7012619,47.1167,11.3167,0.0,1.0,0.0
N_tsch ,4002390028,4007650,46.590401,13.62301,1.0,2.0,0.0
Ober_sterreich ,4002420000,7003026,48.25,14,2.0,2.0,0.0
Osttirol ,4002420027,1112109,46.9167,12.5,1.0,0.0,1.0
Perchtoldsdorf ,4002450011,1025938,48.1333,16.2833,0.0,1.0,0.0
Pfaffenhofen ,4002450020,4008613,47.299049,11.0818,0.0,1.0,0.0
Pfunds ,4002450022,1025947,46.9667,10.5667,1.0,1.0,0.0
Pinkafeld ,4002450030,1025953,47.3833,16.1333,1.0,0.0,1.0
P_chlarn ,4002450032,7003192,48.2167,15.2167,1.0,0.0,1.0
P_rtschach ,4002450038,1025927,46.65,14.1333,0.0,1.0,0.0
Pressbaum ,4002450047,1025964,48.1833,16.0833,0.0,1.0,0.0
Prutz ,4002450049,1025966,47.0833,10.6667,1.0,0.0,1.0
Raabs ,4002510002,1025974,48.8667,15.5167,0.0,1.0,0.0
Ragnitz ,4002510006,1025978,46.8333,15.5833,1.0,0.0,1.0
Retz ,4002510031,7003176,48.7667,15.9667,0.0,1.0,0.0
Reutte ,4002510032,7003253,47.5,10.7333,3.0,2.0,1.0
Ried im Innkreis ,4002510034,7003281,48.2167,13.4833,5.0,2.0,1.0
Rohrbach in Ober_sterreich ,4002510040,1026006,48.5667,13.9833,1.0,0.0,1.0
Saalfelden ,4002540004,1026013,47.4333,12.8667,0.0,1.0,0.0
Salzburg ,4002540006,7003256,47.8,13.05,15.0,13.0,1.0
Sankt Gallen ,4002540014,1026021,47.6833,14.6167,1.0,1.0,0.0
Sankt Gilgen ,4002540018,1026025,47.7667,13.3667,1.0,1.0,0.0
Sankt Martin ,4002540033,1026038,47.4667,13.3833,1.0,0.0,1.0
Sankt Michael ,4002540035,4010010,47.336788,15.02026,1.0,0.0,1.0
Sankt P_lten ,4002540044,7003190,48.2,15.6167,0.0,1.0,0.0
Sankt Veit an der Glan ,4002540049,1026051,46.7667,14.35,0.0,1.0,0.0
Scheibbs ,4002540060,1026063,48.0167,15.1833,0.0,1.0,0.0
Schwaz ,4002540080,7003247,47.35,11.7333,1.0,1.0,0.0
See ,4002540084,1026079,47.3,10.9667,1.0,0.0,1.0
Siegendorf im Burgenland ,4002540100,1026091,47.7833,16.55,1.0,0.0,1.0
Spitz ,4002540119,1026106,48.3667,15.4167,0.0,1.0,0.0
Stams ,4002540127,7003252,47.2667,10.9833,0.0,1.0,0.0
Steyr ,4002540136,7003303,48.0667,14.4167,1.0,1.0,0.0
Stronach ,4002540147,7029594,46.833,12.864,1.0,0.0,1.0
Tyrol ,4002570000,7003029,47.25,11.3333,1.0,1.0,0.0
Telfs ,4002570007,7003251,47.3167,11.0833,1.0,1.0,0.0
Th_rl ,4002570017,1026143,47.5333,15.2167,1.0,0.0,1.0
Tulbing ,4002570034,1026162,48.2667,16.15,0.0,1.0,0.0
Villach ,4002630006,7003232,46.6167,13.85,2.0,1.0,1.0
Vils ,4002630007,1026185,47.5667,10.6167,0.0,1.0,0.0
V_cklabruck ,4002630010,7003279,48.0167,13.6667,2.0,0.0,1.0
Voitsberg ,4002630012,1026188,47.0667,15.15,0.0,1.0,0.0
Vordernberg ,4002630019,7003109,47.5,14.9833,0.0,1.0,0.0
Vienna ,4002630021,7003321,48.2167,16.3667,265.0,343.0,0.0
Wien state ,4002660000,7003030,48.2,16.3667,3.0,1.0,1.0
Waidhofen ,4002660004,7003160,48.8333,15.3,1.0,0.0,1.0
Walchsee ,4002660008,1026203,47.6667,12.3167,0.0,1.0,0.0
Weidling ,4002660019,1026212,48.2833,16.3167,0.0,1.0,0.0
Wels ,4002660029,7012348,48.1667,14.0333,2.0,1.0,1.0
Weyer ,4002660037,7003306,47.8667,14.65,1.0,0.0,1.0
Wiener Neustadt ,4002660041,7003181,47.8167,16.25,1.0,0.0,1.0
Wies ,4002660042,1026234,46.7333,15.2833,1.0,0.0,1.0
Wolfsberg ,4002660055,7003063,46.8333,14.8333,1.0,0.0,1.0
Wolfurt ,4002660058,1026247,47.4667,9.75,1.0,0.0,1.0
Ebenfurth ,4002750017,7029518,47.866,16.366,1.0,0.0,1.0
Berat province ,4003030000,7006424,40.7,19.95,1.0,0.0,1.0
Durr_s ,4003090003,7010750,41.3,19.4667,1.0,0.0,1.0
Kolonj_ province ,4003300000,7006431,40.3333,20.6833,1.0,0.0,1.0
Kor__ province ,4003300001,7006432,40.6167,20.7667,1.0,0.0,1.0
Kor__ ,4003300007,1025347,40.6333,20.7333,1.0,2.0,0.0
P_rmet ,4003450004,1025354,40.25,20.35,1.0,0.0,1.0
Shkod_r ,4003540008,7010752,42.05,19.0167,4.0,4.0,0.0
Tirana ,4003570004,7006423,41.3333,19.8167,0.0,6.0,0.0
Belarus ,4030000000,7006657,53,28,0.0,1.0,0.0
Gomel ,4030180010,7010138,52.4167,31,1.0,0.0,1.0
Hrodna ,4030180024,7031595,53.681,23.813,2.0,0.0,1.0
Grodno province ,4030210001,7012158,53.6667,23.8333,1.0,0.0,1.0
Klimovichi ,4030300012,1055388,53.6,31.9667,1.0,0.0,1.0
Minsk province ,4030360001,1003391,53.9,27.5667,1.0,0.0,1.0
Minsk ,4030360016,7014820,53.85,27.5,5.0,0.0,1.0
Pinsk ,4030450008,7010255,52.1333,26.0167,2.0,0.0,1.0
Prudy ,4030450021,1058726,53.7833,26.5333,1.0,0.0,1.0
Polenovo ,4030450026,7031493,53.365,30.711,0.0,1.0,0.0
Smorgon ,4030540037,1059531,54.3333,26.3333,1.0,0.0,1.0
Vitebsk ,4030630017,7010317,55.1667,30.2333,3.0,0.0,1.0
Volkovysk ,4030630019,1061314,53.1667,24.4667,1.0,0.0,1.0
Belgium ,4031000000,1000063,50.8333,4,3.0,3.0,0.0
Aalst ,4031000001,7006843,50.936041,4.035499,1.0,1.0,0.0
Anderlecht ,4031000012,7007855,50.833333,4.3,1.0,0.0,1.0
Antwerp ,4031000019,7007856,51.213886,4.401514,334.0,242.0,1.0
Arendonk ,4031000021,1026290,51.316667,5.083333,1.0,1.0,0.0
Arlon ,4031000022,7007857,49.683333,5.816667,1.0,0.0,1.0
Aywaille ,4031000035,1026303,50.466667,5.666667,1.0,0.0,1.0
Antwerpen province ,4031000036,7003456,51.166667,4.833333,0.0,1.0,0.0
Bruxelles region ,4031030000,7018237,50.8333,4.3333,0.0,1.0,0.0
Baarle-Hertog ,4031030001,1026306,51.45,4.933333,1.0,0.0,1.0
Berchem ,4031030021,7008822,50.8167,4.4333,0.0,1.0,0.0
Berchem ,4031030022,1136644,51.196044,4.423119,1.0,0.0,1.0
Blankenberge ,4031030036,7007864,51.313057,3.132271,1.0,0.0,1.0
Boom ,4031030045,1026344,51.088656,4.366595,1.0,1.0,0.0
Borgerhout ,4031030046,1026345,51.220599,4.437265,2.0,2.0,0.0
Brabant ,4031030056,7003462,50.50099,4.47677,0.0,1.0,0.0
Brasschaat ,4031030061,1026354,51.291197,4.491816,0.0,2.0,0.0
Bruges ,4031030066,7007867,51.210933,3.225971,23.0,17.0,1.0
Brussels ,4031030068,7007868,50.833333,4.333333,120.0,149.0,0.0
Charleroi ,4031060003,7007869,50.416667,4.433333,3.0,0.0,1.0
Ch_telet ,4031060004,1026363,50.4,4.516667,1.0,0.0,1.0
Comblain-au-Pont ,4031060012,1026374,50.466667,5.583333,1.0,0.0,1.0
Cuesmes ,4031060022,1026382,50.433333,3.916667,1.0,0.0,1.0
Dendermonde ,4031090006,7007872,51.028691,4.101059,6.0,0.0,1.0
Deurle ,4031090012,4003261,51.004111,3.614747,0.0,3.0,0.0
Deurne ,4031090013,1026393,51.221343,4.465948,0.0,1.0,0.0
Diest ,4031090015,7007874,50.983333,5.05,1.0,0.0,1.0
Dilbeek ,4031090017,1026397,50.847988,4.259723,0.0,1.0,0.0
Dinant ,4031090019,7007875,50.264655,4.923573,1.0,1.0,0.0
Drongen ,4031090021,1026401,51.050669,3.65649,0.0,1.0,0.0
Duffel ,4031090023,7007876,51.095756,4.501418,1.0,0.0,1.0
Diegem ,4031090026,7030250,50.893776,4.435736,1.0,0.0,1.0
Ekeren ,4031120006,4003563,51.278801,4.418034,3.0,0.0,1.0
Enghien ,4031120011,7008834,50.7,4.05,0.0,2.0,0.0
Essen ,4031120018,1026416,51.466667,4.466667,0.0,1.0,0.0
Etterbeek ,4031120020,7008814,50.833333,4.383333,2.0,1.0,1.0
Evergem ,4031120023,1026420,51.105295,3.703997,1.0,0.0,1.0
Flanders ,4031150000,7018236,51.096245,4.22834,2.0,0.0,1.0
Forest ,4031150011,7007883,50.8,4.316667,1.0,1.0,0.0
Geel ,4031180004,7007884,51.166667,5,1.0,0.0,1.0
Ghent ,4031180010,7007887,51.05,3.716667,62.0,41.0,1.0
Genval ,4031180012,1026444,50.716667,4.483333,0.0,1.0,0.0
Geraardsbergen ,4031180013,7007888,50.773426,3.882233,1.0,0.0,1.0
Gilly ,4031180029,7030279,50.416667,4.483333,1.0,0.0,1.0
Halle ,4031210003,7012318,50.737331,4.234541,0.0,1.0,0.0
Hasselt ,4031210015,7006947,51.2,5.416667,0.0,1.0,0.0
Herentals ,4031210029,7007892,51.176551,4.832476,4.0,0.0,1.0
Huy ,4031210055,7007896,50.523582,5.241276,1.0,1.0,0.0
Province de Hainaut ,4031210056,7007877,50.5,3.833333,0.0,1.0,0.0
Ypres ,4031240001,7007899,50.851142,2.885688,5.0,4.0,1.0
Ixelles ,4031240003,1026511,50.833333,4.366667,9.0,19.0,0.0
Kalmthout ,4031300001,1026523,51.379161,4.474508,0.0,1.0,0.0
Courtrai ,4031300020,7007934,50.824053,3.267595,7.0,1.0,1.0
La Louvi¨¨re ,4031330004,1026545,50.466667,4.183333,2.0,0.0,1.0
Lanaken ,4031330005,1026547,50.883333,5.65,1.0,0.0,1.0
Lessines ,4031330019,1026557,50.711035,3.835791,1.0,0.0,1.0
Louvain ,4031330020,7007949,50.883333,4.7,7.0,4.0,1.0
Leuze ,4031330021,1136645,50.6,3.6,0.0,1.0,0.0
Li¨¨ge ,4031330028,7007945,50.638674,5.570228,33.0,22.0,1.0
Lier ,4031330029,7016996,51.131282,4.570415,5.0,2.0,1.0
Lokeren ,4031330037,1026571,51.103636,3.99339,1.0,1.0,0.0
Lummen ,4031330046,1026577,50.983333,5.2,1.0,0.0,1.0
Limburg ,4031330049,7003461,51,5.5,1.0,0.0,1.0
Maaseik ,4031360000,7007951,51.1,5.8,2.0,0.0,1.0
Macon ,4031360003,1026583,50.05,4.216667,1.0,0.0,1.0
Maldegem ,4031360006,1026585,51.207372,3.445114,1.0,0.0,1.0
Malm¨¦dy ,4031360007,7007954,50.416667,6.033333,1.0,1.0,0.0
Mechelen ,4031360016,7008736,51.028298,4.479327,40.0,13.0,1.0
Meulebeke ,4031360031,1026607,50.951356,3.288044,1.0,0.0,1.0
Middelburg ,4031360032,4007173,51.256077,3.415952,1.0,0.0,1.0
Molenbeek-Saint-Jean ,4031360038,7007958,50.85,4.316667,4.0,0.0,1.0
Mons ,4031360041,7007961,50.3,3.9667,5.0,7.0,0.0
Moorsel ,4031360045,1026616,50.947433,4.09825,1.0,0.0,1.0
Namur ,4031390003,7007960,50.469923,4.82577,10.0,2.0,1.0
Neufvilles ,4031390011,1026633,50.571071,4.00041,1.0,0.0,1.0
Nieuwpoort ,4031390015,7007965,51.130076,2.751345,1.0,2.0,0.0
Ninove ,4031390019,7007963,50.827763,4.02657,1.0,1.0,0.0
Nivelles ,4031390021,7007964,50.6,4.333333,1.0,1.0,0.0
Namur province ,4031390024,7003466,50.333333,4.833333,0.0,1.0,0.0
Ostend ,4031420006,7007967,51.223392,2.911854,5.0,2.0,1.0
Ottignies ,4031420018,7007971,50.666667,4.566667,0.0,1.0,0.0
Oudenaarde ,4031420019,7007972,50.851684,3.608914,3.0,0.0,1.0
Presles ,4031450023,1026685,50.383333,4.583333,1.0,0.0,1.0
Roeselare ,4031510016,7007978,50.946319,3.122785,2.0,0.0,1.0
Ronse ,4031510018,7007980,50.745741,3.600495,1.0,0.0,1.0
Saintes ,4031540003,1026714,50.704992,4.160062,0.0,1.0,0.0
Saint-Gilles ,4031540005,1026710,50.816667,4.333333,3.0,4.0,0.0
Saint-Hubert ,4031540007,7007984,50.016667,5.383333,3.0,0.0,1.0
Saint Niklaas ,4031540012,7007989,51.165092,4.143703,1.0,0.0,1.0
Saint Truiden ,4031540014,7008735,50.816788,5.18647,2.0,0.0,1.0
Schaerbeek ,4031540019,1026718,50.85,4.383333,0.0,15.0,0.0
Schilde ,4031540022,1026720,51.237188,4.56167,0.0,1.0,0.0
Sint-Amands ,4031540028,7024703,51.052302,4.206234,1.0,1.0,0.0
Soignies ,4031540037,1026742,50.579416,4.070123,2.0,0.0,1.0
Spa ,4031540041,7007991,50.5,5.866667,1.0,0.0,1.0
Sint-Joost-ten-Node ,4031540050,7030303,50.85,4.35,3.0,3.0,0.0
Temse ,4031570001,1026753,51.127938,4.213718,1.0,0.0,1.0
Thuin ,4031570009,7008013,50.333333,4.283333,1.0,0.0,1.0
Tilff ,4031570013,1026763,50.566667,5.583333,1.0,0.0,1.0
Tournai ,4031570018,7008002,50.60715,3.389321,10.0,2.0,1.0
Turnhout ,4031570022,7008018,51.316667,4.95,2.0,1.0,1.0
Uccle ,4031600000,7008815,50.8,4.316667,1.0,12.0,0.0
Verviers ,4031630002,7008733,50.583333,5.866667,1.0,0.0,1.0
Vilvoorde ,4031630007,7008817,50.918229,4.407308,3.0,1.0,1.0
Virelles ,4031630008,1026782,50.066667,4.333333,1.0,0.0,1.0
Vorst ,4031630014,1026786,51.066667,5.016667,0.0,1.0,0.0
Waasmunster ,4031660002,1026791,51.105725,4.085731,1.0,1.0,0.0
Wavre ,4031660015,1026800,50.716667,4.616667,1.0,0.0,1.0
Wetteren ,4031660030,7008023,51.005261,3.88341,1.0,0.0,1.0
Willebroek ,4031660034,1026814,51.060409,4.360193,1.0,0.0,1.0
Woluwe-Saint-Lambert ,4031660037,4012347,50.847804,4.428474,0.0,4.0,0.0
West-Vlaanderen ,4031660041,7003458,51,3,0.0,1.0,0.0
Sarajevo ,4032540001,7015438,43.85,18.3833,1.0,0.0,1.0
Asenovgrad ,4033000007,1026842,42,24.8833,3.0,0.0,1.0
Dolni D_bnik ,4033090006,1026864,43.4,24.4167,1.0,0.0,1.0
Karlovo ,4033300004,7009967,42.6333,24.8167,1.0,0.0,1.0
Karnobat ,4033300006,7017008,42.65,26.9833,1.0,0.0,1.0
Kazanl_k ,4033300008,1026894,42.6167,25.3833,2.0,0.0,1.0
Kyustendil ,4033300023,7018071,42.2667,22.6667,2.0,0.0,1.0
Plovdiv ,4033450010,7010666,42.1333,24.75,1.0,0.0,1.0
Samokov ,4033540002,1026952,42.3167,23.5667,2.0,1.0,1.0
Shumen ,4033540006,1026837,43.2833,26.9167,1.0,0.0,1.0
Sliven ,4033540009,1026956,42.6667,26.3167,1.0,0.0,1.0
Sofia ,4033540012,7009977,42.6667,23.3,2.0,12.0,0.0
Vidin ,4033630006,7010649,44,22.8333,1.0,0.0,1.0
Vratsa ,4033630007,1026986,43.2,23.55,2.0,0.0,1.0
Yambol ,4033720000,1026888,42.4667,26.5,1.0,0.0,1.0
Czech Republic ,4060000000,1001780,49.75,15,2.0,2.0,0.0
Bechyn¨§ ,4060030001,7011356,49.2833,14.4667,0.0,2.0,0.0
Bene_ov ,4060030007,7011357,49.8,14.6833,1.0,0.0,1.0
B¨ªlina ,4060030010,1027066,50.5333,13.8,2.0,0.0,1.0
Blatn¨¢ ,4060030012,7011360,49.4333,13.8833,1.0,0.0,1.0
Boskovice ,4060030025,1027100,49.5,16.65,2.0,1.0,1.0
B_eclav ,4060030031,1027072,48.7833,16.9,1.0,0.0,1.0
Brno ,4060030039,7011840,49.2167,16.6667,15.0,17.0,0.0
Byst_ice pod Host_nem ,4060030056,1027120,49.4,17.6833,1.0,1.0,0.0
Bohemia ,4060030057,7006470,49.3333,14.5,13.0,0.0,1.0
Bludov ,4060030058,7031764,49.95,16.948,1.0,1.0,0.0
Ceske Budejovice ,4060060017,7011338,48.9667,14.4833,3.0,2.0,1.0
Cheb ,4060060021,7010618,50.1333,12.4667,1.0,0.0,1.0
Chomutov ,4060060026,1027132,50.45,13.4333,2.0,0.0,1.0
Chrast ,4060060029,1027135,49.8,13.5,1.0,0.0,1.0
_astolovice ,4060060040,7031741,50.133,16.186,0.0,1.0,0.0
Domazlice ,4060090019,1027158,49.4333,12.9,2.0,0.0,1.0
Dv_r Kr¨¢lov¨¦ ,4060090027,1027169,50.45,15.8333,1.0,0.0,1.0
Fr_dek M¨ªstek ,4060150002,1027171,49.7,18.3333,0.0,1.0,0.0
Fulnek ,4060150004,4004143,49.712857,17.903702,1.0,1.0,0.0
Gottwaldov ,4060180001,7011465,49.2333,17.6667,2.0,2.0,0.0
Hav¨ª_ov ,4060210004,1027186,49.7667,18.3333,0.0,1.0,0.0
Havl¨ª_k_v Brod ,4060210005,1027187,49.6333,15.5667,1.0,0.0,1.0
Hlinsko ,4060210008,1027189,49.7667,15.9,2.0,0.0,1.0
Hodon¨ªn ,4060210012,1027197,48.8667,17.1667,1.0,0.0,1.0
Hole_ov ,4060210013,1027200,49.3333,17.5833,1.0,0.0,1.0
Ho_ice ,4060210017,1027194,50.3833,15.65,1.0,0.0,1.0
Hostinn¨¦ ,4060210028,7024716,50.55,15.7333,1.0,0.0,1.0
Hradec Kr¨¢lov¨¦ ,4060210034,7012051,50.2167,15.8333,1.0,0.0,1.0
Hranice ,4060210039,7011489,49.5667,17.75,1.0,0.0,1.0
Ivan_ice ,4060240000,1027229,49.1,16.3833,1.0,0.0,1.0
Jihomoravsk_ ,4060270001,1003523,49.1667,16.6667,1.0,0.0,1.0
Jarom¨§_ ,4060270007,1027236,50.3667,15.9167,3.0,0.0,1.0
Ji_¨ªn ,4060270018,1027248,50.4667,15.4667,1.0,0.0,1.0
Jihlava ,4060270019,7011504,49.4,15.5667,1.0,0.0,1.0
Jind_ich_v Hradec ,4060270023,7011482,49.15,15.0167,1.0,0.0,1.0
Karlovy Vary ,4060300007,7011521,50.2167,12.8667,1.0,2.0,0.0
Karvin¨¢ ,4060300009,1027266,49.8333,18.5,1.0,0.0,1.0
Kladno ,4060300014,1027273,50.1667,14.1167,1.0,0.0,1.0
Kladruby ,4060300015,7011527,49.7167,12.9833,1.0,0.0,1.0
Kol¨ªn ,4060300024,7011624,50.0333,15.1833,5.0,1.0,1.0
Kosmonosy ,4060300031,1027290,50.4333,14.9333,1.0,0.0,1.0
Kralovice ,4060300038,1027296,49.9833,13.5,1.0,0.0,1.0
Kr¨¢l_v Dv_r ,4060300041,1027292,49.9333,14.05,1.0,0.0,1.0
Krom¨§_¨ª_ ,4060300050,7011637,49.3167,17.45,3.0,2.0,1.0
Kutn¨¢ Hora ,4060300058,7011655,49.95,15.25,2.0,1.0,1.0
Kyjov ,4060300061,1027313,49,17.1667,2.0,0.0,1.0
Lednice ,4060330005,7011687,48.8,16.8,1.0,0.0,1.0
Liberec ,4060330011,7011694,50.8,15.0833,2.0,0.0,1.0
Lipn¨ªk ,4060330018,1027337,49.5167,17.5,1.0,0.0,1.0
Litom¨§_ice ,4060330023,7011695,50.55,14.1667,1.0,0.0,1.0
Litovel ,4060330025,1027343,49.7,17.0833,2.0,0.0,1.0
Louny ,4060330034,7011697,50.3667,13.7833,1.0,1.0,0.0
Lovosice ,4060330035,7011702,50.5167,14.0333,1.0,0.0,1.0
Mari¨¢nsk¨¦ Rad_ice ,4060360003,4006913,50.5833,13.6667,1.0,0.0,1.0
M¨§ln¨ªk ,4060360007,7011703,50.3833,14.2333,2.0,0.0,1.0
Milevsko ,4060360015,1027380,49.45,14.3667,0.0,1.0,0.0
Mlad¨¢ Boleslav ,4060360021,7011710,50.4333,14.9167,1.0,0.0,1.0
Mnichovo Hradi_t¨§ ,4060360026,4007277,50.5333,15,1.0,0.0,1.0
Moravia ,4060360032,7006467,49.803795,15.475265,11.0,1.0,1.0
Most ,4060360036,7011712,50.5167,13.65,3.0,0.0,1.0
Mut¨§jovice ,4060360041,1027400,50.2,13.7,1.0,0.0,1.0
N¨¢chod ,4060390000,1027402,50.4333,16.1667,1.0,0.0,1.0
Nepomuk ,4060390007,7011714,49.4833,13.5833,1.0,0.0,1.0
Nova Paka ,4060390013,1027418,50.5,15.5,1.0,0.0,1.0
Nov¨¦ Hrady ,4060390015,1027422,48.8,14.7833,1.0,0.0,1.0
Nov¨¦ M¨§sto ,4060390016,1027423,50.35,16.15,0.0,1.0,0.0
Nov¨¦ M¨§sto na Morav¨§ ,4060390017,1027424,49.5667,16.0833,1.0,0.0,1.0
Nov¨¦ Stra_ec¨ª ,4060390019,1027427,50.15,13.9167,0.0,1.0,0.0
Nov_ Ji_¨ªn ,4060390024,1027431,49.6167,18,0.0,1.0,0.0
Nymburk ,4060390026,1027432,50.2,15,1.0,0.0,1.0
Olomouc ,4060420001,7011841,49.6333,17.25,7.0,5.0,1.0
Ol_any ,4060420003,1027433,49.4,13.65,0.0,1.0,0.0
Opava ,4060420004,7011718,49.9667,17.9167,3.0,1.0,1.0
Opo_no ,4060420005,4008221,50.26815,16.11591,1.0,0.0,1.0
Ostrava ,4060420008,1027440,49.8333,18.25,4.0,4.0,0.0
Pacov ,4060450000,1027455,49.4833,15.0167,0.0,1.0,0.0
Pardubice ,4060450003,7011721,50.05,15.75,4.0,2.0,1.0
Pavlice ,4060450004,1027459,48.9667,15.9,1.0,0.0,1.0
Pelh_imov ,4060450007,1027461,49.4333,15.2167,1.0,0.0,1.0
P¨ªsek ,4060450011,7011720,49.3,14.1667,3.0,0.0,1.0
Plasy ,4060450013,7011725,49.9333,13.4,1.0,0.0,1.0
Plze¨¾ ,4060450016,7011723,49.75,13.4167,6.0,2.0,1.0
Pod¨§brady ,4060450019,1027471,50.1667,15.0833,2.0,0.0,1.0
Prague ,4060450028,7006464,50.1,14.4333,109.0,184.0,0.0
P_elou_ ,4060450031,1027450,50.05,15.55,2.0,0.0,1.0
P_erov ,4060450032,1027451,49.4667,17.5,1.0,1.0,0.0
Pr¨ªbram ,4060450034,1027446,49.7,14.0167,2.0,0.0,1.0
Prost¨§jov ,4060450039,1027486,49.4667,17.1167,3.0,0.0,1.0
Rakovn¨ªk ,4060510007,1027494,50.1167,13.7333,1.0,0.0,1.0
Rosice ,4060510014,1027503,49.2,16.3833,1.0,0.0,1.0
Roudnice ,4060510015,7011749,50.4333,14.2667,1.0,0.0,1.0
Rudolfov ,4060510021,1027507,48.9833,14.5333,0.0,1.0,0.0
Ronov ,4060510026,7030180,49.35,16.135,1.0,0.0,1.0
Severocesky Kraj ,4060540000,1003527,50.5833,14.25,1.0,0.0,1.0
St_edo_esk_ ,4060540002,1003530,50,14.4167,1.0,0.0,1.0
Sedlice ,4060540010,1027517,49.3833,13.95,1.0,0.0,1.0
Semily ,4060540011,1027518,50.6333,15.3333,2.0,2.0,0.0
Silesia ,4060540022,4010532,49.803795,15.475265,2.0,0.0,1.0
_luknov ,4060540023,1027036,51.016,14.466,0.0,1.0,0.0
Sokolov ,4060540028,1027536,50.1833,12.6333,1.0,0.0,1.0
_t¨§chovice ,4060540039,4000293,49.852211,14.40478,1.0,1.0,0.0
Su_ice ,4060540059,1027562,49.2333,13.5333,1.0,0.0,1.0
T¨¢bor ,4060570000,7016824,49.4167,14.65,0.0,1.0,0.0
Tachov ,4060570001,1027582,49.8,12.6333,1.0,0.0,1.0
Terez¨ªn ,4060570007,7011808,50.5167,14.15,1.0,1.0,0.0
Tou_im ,4060570011,1027595,50.05,12.9833,1.0,0.0,1.0
Tova_ov ,4060570012,4011311,49.4333,17.2833,0.0,1.0,0.0
T_eb¨ª_ ,4060570015,1027575,49.2333,15.8833,0.0,1.0,0.0
Turnov ,4060570025,1027605,50.6,15.1667,1.0,0.0,1.0
T_n nad Vltavou ,4060570026,1027573,49.2333,14.4167,1.0,0.0,1.0
Uhersk¨¦ Hradi_t¨§ ,4060600002,1027609,49.0833,17.5,2.0,4.0,0.0
_st¨ª nad Labem ,4060600016,1027001,50.6833,14,1.0,0.0,1.0
Valasske Mezi_¨ª_¨ª ,4060630002,1027618,49.4833,17.95,1.0,1.0,0.0
Veltrusy ,4060630015,1027631,50.2667,14.3333,1.0,0.0,1.0
Vesel¨ª ,4060630017,1027634,48.9667,17.4167,1.0,1.0,0.0
Vla_im ,4060630028,1027638,49.7,14.9,1.0,0.0,1.0
Volyn¨§ ,4060630033,1027644,49.1833,13.8833,1.0,1.0,0.0
Vset¨ªn ,4060630039,1027652,49.3333,18,4.0,1.0,1.0
Vysok¨¦ M_to ,4060630042,1027656,49.95,16.1667,2.0,0.0,1.0
Z¨¢kupy ,4060750005,7011821,50.6833,14.65,1.0,0.0,1.0
_atec ,4060750011,1027049,50.3333,13.5667,1.0,0.0,1.0
Zborovy ,4060750015,1027667,49.3833,13.5167,1.0,0.0,1.0
_d'¨¢r ,4060750018,7011344,50.0667,13.4667,1.0,0.0,1.0
Znojmo ,4060750035,7011825,48.8667,16.0667,2.0,2.0,0.0
Croatia ,4061000000,7006663,45.1667,15.5,2.0,0.0,1.0
Cavtat ,4061060001,1064959,42.5833,18.2167,1.0,0.0,1.0
Kor_ula ,4061300015,7015511,42.95,17.1333,0.0,1.0,0.0
Kraljevica ,4061300018,1065076,45.2667,14.5667,1.0,0.0,1.0
Lepoglava ,4061330002,4006310,46.2167,16.0333,0.0,1.0,0.0
Osijek ,4061420008,7015337,45.55,18.6833,1.0,0.0,1.0
Petrinja ,4061450006,1065177,45.4333,16.2833,2.0,0.0,1.0
Pu_i__a ,4061450015,1065210,43.35,16.7333,1.0,0.0,1.0
Pula ,4061450016,7015562,44.8667,13.8667,1.0,0.0,1.0
_ibenik ,4061540007,7015447,43.75,15.9167,2.0,2.0,0.0
Solin ,4061540017,7017320,43.55,16.5,0.0,1.0,0.0
Split ,4061540018,7015546,43.5167,16.4667,2.0,2.0,0.0
Vinkovci ,4061630008,1065324,45.2667,18.8167,1.0,0.0,1.0
Vrana ,4061630025,7024750,44.266,14.8,1.0,0.0,1.0
Vrpolje ,4061630026,7031461,45.21,18.406,1.0,0.0,1.0
Zadar ,4061750003,7015549,44.1167,15.2333,3.0,1.0,1.0
Zagreb ,4061750004,7015558,45.8,15.9667,3.0,7.0,0.0
Denmark ,4090000000,1000066,56,10,17.0,7.0,1.0
_rhus county ,4090000001,7003441,56.1667,-10.2167,1.0,0.0,1.0
_lborg ,4090000012,7003536,57.05,9.9333,2.0,1.0,1.0
Aarhus ,4090000020,7003442,56.1667,10.2167,2.0,2.0,0.0
Assens ,4090000032,7003413,55.2667,9.9,3.0,0.0,1.0
Augustenborg ,4090000034,7003427,54.95,9.8833,1.0,0.0,1.0
Bagsvaerd ,4090030003,4001140,55.676279,12.569195,0.0,1.0,0.0
Bjerringbro ,4090030019,1027733,56.3833,9.6667,1.0,0.0,1.0
Broager ,4090030046,1027759,54.8833,9.6833,2.0,0.0,1.0
K_benhavn county ,4090060000,7003569,55.75,12.4167,1.0,2.0,0.0
Copenhagen ,4090060002,7003474,55.7167,12.5667,151.0,178.0,0.0
Dybb_l ,4090090008,1027775,54.9167,9.75,1.0,0.0,1.0
Ebeltoft ,4090120001,1027778,56.1833,10.7,1.0,0.0,1.0
Frederiksberg commune ,4090150000,7018282,55.681904,12.52489,1.0,0.0,1.0
Fyn county ,4090150002,7003408,55.3333,10.4167,3.0,1.0,1.0
F_borg ,4090150003,7003416,55.1,10.25,6.0,1.0,1.0
Fredensborg ,4090150022,7003545,55.9833,12.4,0.0,3.0,0.0
Fredericksberg ,4090150024,7003476,55.7,12.4833,2.0,4.0,0.0
Frederiksberg ,4090150025,1027809,55.4167,11.5667,3.0,8.0,0.0
Gentofte ,4090180009,7003550,55.7667,12.5333,0.0,3.0,0.0
Grevinge ,4090180037,1027849,55.8,11.5667,0.0,1.0,0.0
Haderslev ,4090210000,7003422,55.25,9.5,2.0,0.0,1.0
Haraldsted ,4090210010,1027874,55.5,11.7833,1.0,0.0,1.0
Helleb_k ,4090210028,1027890,56.0667,12.5667,1.0,1.0,0.0
Hellerup ,4090210029,4004927,55.676279,12.569195,0.0,5.0,0.0
Helsing_r ,4090210033,7003553,56.05,12.6333,4.0,2.0,1.0
Hiller_d ,4090210044,7003556,55.9333,12.3167,2.0,0.0,1.0
Hj_rring ,4090210052,7003557,57.4667,9.9833,1.0,2.0,0.0
Horsens ,4090210077,7003403,55.8833,9.8833,3.0,2.0,1.0
H_rsholm ,4090210078,7003561,55.8833,12.5,1.0,1.0,0.0
Humleb_k ,4090210089,7031599,55.9667,12.5667,0.0,1.0,0.0
Hvals_ ,4090210094,1027936,55.6,11.8333,0.0,1.0,0.0
Kastrup ,4090300007,4005582,55.64409,12.628475,1.0,0.0,1.0
Kerteminde ,4090300009,7003409,55.45,10.6667,0.0,1.0,0.0
Kolding ,4090300024,7003405,55.4833,9.5,2.0,0.0,1.0
Lyngby ,4090330031,4006684,55.722735,12.555265,0.0,2.0,0.0
Nakskov ,4090390003,1028036,54.8333,11.1667,1.0,0.0,1.0
Odense ,4090420002,7003411,55.4,10.4167,7.0,1.0,1.0
Randers ,4090510006,7003583,56.4667,10.05,3.0,0.0,1.0
Ringk_bing ,4090510015,7003438,56.1,8.0833,1.0,0.0,1.0
Ringsted ,4090510016,7003584,55.4667,11.8,4.0,0.0,1.0
R_nne ,4090510028,7003585,55.1167,14.7167,2.0,0.0,1.0
Roskilde ,4090510031,7003586,55.65,12.1167,2.0,2.0,0.0
Rungsted ,4090510035,7003588,55.9,12.5667,0.0,1.0,0.0
S_nderjylland ,4090540000,7003420,55.1667,9.1667,1.0,1.0,0.0
Skagen ,4090540021,7003593,57.7333,10.6167,0.0,1.0,0.0
Skivholme ,4090540029,4010512,56.2,9.9667,1.0,0.0,1.0
Slagelse ,4090540037,7003595,55.4,11.3833,1.0,0.0,1.0
Sor_ ,4090540059,7003597,55.4333,11.5667,0.0,1.0,0.0
Stege ,4090540066,7003598,54.9833,12.3,1.0,0.0,1.0
Svendborg ,4090540088,7003417,55.0667,10.6333,2.0,0.0,1.0
Thisted ,4090570011,1028182,56.9667,8.7,2.0,0.0,1.0
Tibirke ,4090570017,7003603,56.05,12.1167,0.0,1.0,0.0
Toftlund ,4090570024,1028194,55.2,9.0667,1.0,0.0,1.0
Ullerslev ,4090600005,1028211,55.35,10.6667,1.0,0.0,1.0
Vejle county ,4090630000,7003399,55.75,9.5,1.0,0.0,1.0
Vallekilde ,4090630004,4011634,55.74445,11.42553,1.0,1.0,0.0
Vamdrup ,4090630008,1028216,55.4333,9.3,1.0,0.0,1.0
Vejen ,4090630013,7003435,55.4833,9.2167,1.0,1.0,0.0
Vejle ,4090630015,7013212,55.7167,9.55,1.0,0.0,1.0
Viborg ,4090630025,7003440,56.4667,9.4167,3.0,0.0,1.0
Vordingborg ,4090630044,7003609,55.0167,11.9167,2.0,1.0,1.0
Estonia ,4120000000,7006540,59,26,3.0,0.0,1.0
Kolgak¨¹la ,4120300017,1055508,59.5167,25.7167,1.0,0.0,1.0
Kuressaare ,4120300025,1056118,58.248,22.508,2.0,0.0,1.0
Narva ,4120390000,7006628,59.3667,28.2833,1.0,0.0,1.0
Sindi ,4120540004,1059424,58.4,24.677,2.0,0.0,1.0
Tallinn ,4120570001,7006629,59.433,24.728,3.0,7.0,0.0
Tartu ,4120570004,7006624,58.366,26.745,4.0,1.0,1.0
Viru-Jaagupi ,4120630014,1061246,59.242,26.474,2.0,0.0,1.0
France ,4151000000,1000070,46,2,21.0,23.0,0.0
Alsace ,4151000001,7002870,48.1833,7.5,3.0,1.0,1.0
Aquitaine ,4151000002,7002878,44.5833,1,0.0,1.0,0.0
Abbeville ,4151000005,7010587,50.1,1.8333,16.0,1.0,1.0
Ach¨¨res ,4151000016,1031689,48.9667,2.0667,0.0,1.0,0.0
Agen ,4151000024,7008189,44.2,.6333,1.0,0.0,1.0
Agnetz ,4151000025,5001495,49.3833,2.3833,1.0,0.0,1.0
L'Aigle ,4151000032,1033561,48.7667,.6333,2.0,0.0,1.0
Aigues-Mortes ,4151000038,7008369,43.5667,4.1833,1.0,0.0,1.0
Aire-sur-la-Lys ,4151000057,7008612,50.6333,2.4,1.0,0.0,1.0
Aix-en-Provence ,4151000064,7010786,43.5167,5.45,23.0,24.0,0.0
Ajaccio ,4151000067,7008351,41.9333,8.6833,4.0,0.0,1.0
Albertville ,4151000075,1031731,45.6667,6.4,1.0,0.0,1.0
Albi ,4151000077,7008447,43.9333,2.1333,2.0,0.0,1.0
Alen_on ,4151000083,7008621,48.4167,.0833,2.0,1.0,1.0
Al¨¨s ,4151000085,7008622,44.1333,4.0833,2.0,1.0,1.0
Amboise ,4151000123,7008272,47.4167,1,2.0,1.0,1.0
Amfreville-la-Mi-Voie ,4151000129,4000651,49.4,1.1167,1.0,0.0,1.0
Amiens ,4151000131,7010588,49.9,2.3,12.0,3.0,1.0
Les Andelys ,4151000148,1033969,49.25,1.4333,1.0,0.0,1.0
Andlau ,4151000151,7023198,48.3833,7.4167,1.0,0.0,1.0
Andr¨¦sy ,4151000154,1031781,48.9833,2.0667,0.0,1.0,0.0
Anduze ,4151000157,1031784,44.05,3.9833,1.0,0.0,1.0
Angers ,4151000159,7008480,47.4833,-.5333,9.0,9.0,0.0
Angoul¨ºme ,4151000166,7008565,45.6667,.1667,2.0,0.0,1.0
Anizy-le-Ch_teau ,4151000171,1031794,49.5167,3.4667,1.0,0.0,1.0
Annecy ,4151000175,7012322,45.9,6.1167,1.0,1.0,0.0
Annemasse ,4151000177,7008636,46.1833,6.2333,0.0,1.0,0.0
Annet-sur-Marne ,4151000178,1031799,48.9167,2.7167,0.0,1.0,0.0
Antibes ,4151000186,7012323,43.5833,7.1167,0.0,3.0,0.0
Antony ,4151000188,1031807,48.75,2.2833,0.0,2.0,0.0
Arbois ,4151000201,7008644,46.9167,5.7833,1.0,0.0,1.0
Argentan ,4151000226,7008654,48.75,-.0167,3.0,0.0,1.0
Argenteuil ,4151000228,7008019,48.95,2.25,2.0,2.0,0.0
Arles ,4151000241,7008775,43.6833,4.6333,6.0,2.0,1.0
Armenti¨¨res ,4151000247,1031853,50.6833,2.8833,0.0,2.0,0.0
Arpajon ,4151000253,7008660,48.5833,2.25,0.0,1.0,0.0
Arras ,4151000257,7008468,50.2833,2.7667,3.0,2.0,1.0
Ars-en-R¨¦ ,4151000259,7008664,46.2167,-1.5167,1.0,0.0,1.0
Asni¨¨res-sur-Oise ,4151000273,7017187,49.1333,2.35,0.0,1.0,0.0
Asni¨¨res-sur-Seine ,4151000274,7008667,48.9167,2.2833,0.0,1.0,0.0
Aubagne ,4151000286,1031883,43.2833,5.5833,0.0,2.0,0.0
Aubenas ,4151000290,1031884,44.6167,4.4,1.0,0.0,1.0
Aubusson ,4151000305,7008671,45.9667,2.1667,1.0,0.0,1.0
Auch ,4151000306,7008672,43.6667,.6,2.0,2.0,0.0
Audun-le-Tiche ,4151000315,4000951,49.4667,5.95,1.0,0.0,1.0
Aulnay ,4151000320,7008577,46.0167,-.3333,1.0,0.0,1.0
Aumale ,4151000326,1031913,49.7667,1.75,1.0,1.0,0.0
Aups ,4151000335,1031918,43.6333,6.2167,1.0,0.0,1.0
Aurillac ,4151000339,7008197,44.9333,2.4333,1.0,0.0,1.0
Auteuil ,4151000345,7008704,48.8333,1.8167,0.0,1.0,0.0
Auve ,4151000353,1031932,49.0333,4.7167,1.0,0.0,1.0
Auvers-sur-Oise ,4151000356,7008030,49.0833,2.1667,0.0,7.0,0.0
Auxerre ,4151000357,7013341,47.8,3.5833,3.0,2.0,1.0
Avallon ,4151000365,7008247,47.5,3.9,2.0,0.0,1.0
Avignon ,4151000374,7008799,43.9333,4.8,26.0,23.0,1.0
Avon ,4151000380,1031954,48.4,2.7167,1.0,0.0,1.0
Avranches ,4151000383,7008207,48.7,-1.35,1.0,0.0,1.0
Azur, C_te d' ,4151000396,7016444,43.5,7,0.0,1.0,0.0
Auteuil ,4151000397,7013287,48.85,2.266667,1.0,1.0,0.0
Aveyron ,4151000398,7002906,44.25,2.6667,1.0,1.0,0.0
Azay-le-Ferron ,4151000399,7029463,46.85,1.066,1.0,0.0,1.0
Ain ,4151000400,7002864,46.1667,5.3333,0.0,1.0,0.0
Allier ,4151000402,7002866,46.4167,3.0333,0.0,1.0,0.0
Alpes-de-Haute-Provence ,4151000403,7017065,44.1667,6,0.0,1.0,0.0
Ari¨¨ge ,4151000407,7002910,43,1.5,1.0,0.0,1.0
Aude ,4151000409,7002904,43.0833,2.5,2.0,1.0,1.0
Basse-Normandie ,4151030000,7002872,49,-1,0.0,1.0,0.0
Burgundy region ,4151030001,7002875,47,4.5167,1.0,0.0,1.0
Brittany ,4151030002,7012216,48,-3.0167,2.0,3.0,0.0
Baccarat ,4151030003,1031979,48.45,6.75,1.0,0.0,1.0
Badonviller ,4151030005,1031981,48.5,6.9,1.0,0.0,1.0
Bagnolet ,4151030011,7008934,48.8667,2.4167,3.0,0.0,1.0
Bailleul ,4151030016,7008936,50.7333,2.7333,1.0,0.0,1.0
Balagne ,4151030021,1111887,42.5833,8.8333,1.0,0.0,1.0
Bandol ,4151030030,1032001,43.1333,5.75,0.0,1.0,0.0
Banyuls-sur-Mer ,4151030037,4001198,42.4833,3.1333,1.0,0.0,1.0
Barbizon ,4151030042,7008938,48.4333,2.6,0.0,3.0,0.0
Bar-le-Duc ,4151030052,7008983,48.7667,5.1667,1.0,0.0,1.0
Bar-sur-Aube ,4151030064,7008984,48.2333,4.7167,2.0,0.0,1.0
la Bass¨¦e ,4151030069,1033592,50.5167,2.8167,1.0,0.0,1.0
Bastia ,4151030073,7008352,42.6833,9.4333,2.0,0.0,1.0
La Baule-Escoublac ,4151030076,7009248,47.3,-2.3833,0.0,1.0,0.0
Bayeux ,4151030085,7008208,49.2667,-.7,6.0,2.0,1.0
Bayonne ,4151030087,7008192,43.5,-1.4667,7.0,3.0,1.0
Beauchamp ,4151030103,1032049,49.0167,2.1833,0.0,1.0,0.0
Beaumont-le-Roger ,4151030122,7008944,49.0833,.7833,0.0,1.0,0.0
Beaumont-sur-Sarthe ,4151030124,1032065,48.2167,.1167,1.0,0.0,1.0
Beaune ,4151030125,7008221,47.0333,4.8333,2.0,1.0,1.0
Beauvais ,4151030136,7010570,49.4333,2.0833,4.0,2.0,1.0
Belfort ,4151030153,7008353,47.6333,6.8667,1.0,0.0,1.0
Bell¨ºme ,4151030164,1032087,48.3667,.5667,1.0,0.0,1.0
Bergues ,4151030191,7008455,50.9667,2.4333,0.0,1.0,0.0
Bernay ,4151030194,7008949,49.1,.6,2.0,1.0,1.0
Besan_on ,4151030207,7008356,47.2333,6.0333,19.0,7.0,1.0
B¨¦thune ,4151030221,7008986,50.5333,2.6333,3.0,0.0,1.0
B¨¦ziers ,4151030233,7017414,43.35,3.2167,4.0,3.0,1.0
Bi¨¨vres ,4151030240,7008952,48.75,2.2167,0.0,1.0,0.0
Billom ,4151030244,1032148,45.7167,3.3333,1.0,0.0,1.0
Blainville-Crevon ,4151030262,4001589,49.5,1.3,1.0,0.0,1.0
Blangy-sur-Bresle ,4151030273,1032172,49.9333,1.6333,1.0,0.0,1.0
Blois ,4151030294,7008320,47.6,1.3333,5.0,2.0,1.0
Blotzheim ,4151030296,1032183,47.6167,7.5,1.0,0.0,1.0
Bois-Colombes ,4151030308,1032192,48.9167,2.2667,0.0,1.0,0.0
Bois-d'Arcy ,4151030309,1032194,48.8,2.0167,0.0,1.0,0.0
Bois-le-Roi ,4151030312,1032195,48.4667,2.7,1.0,3.0,0.0
Bologne ,4151030322,1032204,48.2,5.1333,1.0,0.0,1.0
Bonnieux ,4151030346,7008800,43.8167,5.3,0.0,1.0,0.0
Bordeaux ,4151030351,7008161,44.8333,-.5667,45.0,20.0,1.0
Bormes-les-Mimosas ,4151030354,1032227,43.1667,6.35,1.0,0.0,1.0
Boulange ,4151030371,4001733,49.3833,5.95,1.0,0.0,1.0
Bouligny ,4151030374,1032240,49.2833,5.75,1.0,0.0,1.0
Boulogne-Billancourt ,4151030376,7008963,48.8333,2.2333,0.0,4.0,0.0
Boulogne ,4151030378,7016632,50.7167,1.6167,5.0,8.0,0.0
Bourbonne-les-Bains ,4151030388,7008964,47.9667,5.7667,0.0,1.0,0.0
Bourg-en-Bresse ,4151030398,7012558,46.2,5.2167,0.0,1.0,0.0
Bourges ,4151030399,7017415,47.0833,2.3833,2.0,2.0,0.0
Bourg-la-Reine ,4151030402,7008991,48.7833,2.3167,0.0,1.0,0.0
Bourgoin-Jallieu ,4151030409,7012001,45.5667,5.2833,1.0,0.0,1.0
Bourron-Marlotte ,4151030416,7008969,48.3333,2.7,0.0,2.0,0.0
Boussy-Saint-Antoine ,4151030425,1032280,48.6833,2.5333,1.0,0.0,1.0
Brest ,4151030468,7008258,48.3833,-4.5,6.0,4.0,1.0
Brittany ,4151030469,7024267,48,-3,1.0,0.0,1.0
Brie-Comte-Robert ,4151030491,1032322,48.6833,2.6167,1.0,0.0,1.0
Brienne-le-Ch_teau ,4151030493,1032324,48.4,4.5333,1.0,0.0,1.0
Brignoles ,4151030497,1032328,43.4167,6.05,2.0,1.0,1.0
Brive-la-Gaillarde ,4151030508,7017416,45.15,1.5333,2.0,0.0,1.0
Brou ,4151030515,7008266,48.2167,1.1667,1.0,0.0,1.0
Bruy¨¨res ,4151030529,1032354,48.2167,6.7167,1.0,0.0,1.0
Bussy-Saint-Georges ,4151030563,1032377,48.85,2.7,1.0,0.0,1.0
Buzan_ais ,4151030566,1032380,46.8833,1.4333,1.0,0.0,1.0
Bougival ,4151030569,7029591,48.866,2.135,0.0,1.0,0.0
Bas-Rhin ,4151030570,7002907,45.5833,7.65,1.0,1.0,0.0
Bouches-du-Rh_ne ,4151030573,7002915,43.5,7,0.0,1.0,0.0
Cachan ,4151060006,1032385,48.7833,2.3333,0.0,1.0,0.0
Cadenet ,4151060007,7008998,43.7333,5.3667,1.0,0.0,1.0
Caen ,4151060011,7008209,49.1833,-.3667,9.0,5.0,1.0
Cagnes-sur-Mer ,4151060012,7009000,43.6667,7.15,0.0,4.0,0.0
Cahors ,4151060013,7008446,44.4667,.4333,1.0,0.0,1.0
Calais ,4151060018,7009002,50.95,1.8667,3.0,1.0,1.0
Cambrai ,4151060028,7008456,50.1667,3.2333,3.0,3.0,0.0
Cancon ,4151060037,1032406,44.5333,.6333,1.0,0.0,1.0
Cannes ,4151060040,7008765,43.55,7,2.0,14.0,0.0
le Cannet ,4151060041,7009270,43.5833,7,0.0,1.0,0.0
Carcassonne ,4151060052,7012171,43.2167,2.35,3.0,2.0,1.0
Carc¨¨s ,4151060053,1032413,43.4833,6.1833,0.0,1.0,0.0
Carhaix-Plouguer ,4151060056,1032416,48.2667,-3.5833,1.0,0.0,1.0
Carpentras ,4151060067,7008801,44.05,5.05,4.0,2.0,1.0
Cassel ,4151060080,1032436,50.8,2.4833,0.0,1.0,0.0
Cassis ,4151060082,1032437,43.2167,5.5333,0.0,2.0,0.0
Castelmoron-sur-Lot ,4151060089,1032440,44.4,.5,0.0,1.0,0.0
Castillon-la-Bataille ,4151060098,1032445,44.85,-.0333,0.0,1.0,0.0
Cergy-Pontoise ,4151060138,7023827,49.05,2.0833,1.0,0.0,1.0
C¨¦rilly ,4151060139,1032384,46.6167,2.8167,1.0,0.0,1.0
Cernay ,4151060142,1032471,47.8167,7.1833,1.0,0.0,1.0
Ch_lons-sur-Marne ,4151060181,7008339,48.9667,4.3667,10.0,1.0,1.0
Chalon-sur-Sa_ne ,4151060182,7008242,46.7833,4.85,4.0,1.0,1.0
Chamb¨¦ry ,4151060189,7008766,45.5667,5.9167,2.0,0.0,1.0
Chamonix-Mont-Blanc ,4151060200,1032562,45.9167,6.8667,0.0,1.0,0.0
Champagne ,4151060204,7008581,45.2667,4.8,1.0,0.0,1.0
Champigneulles ,4151060222,7009016,48.7333,6.1667,1.0,0.0,1.0
Champlan ,4151060224,1032580,48.7,2.2667,1.0,0.0,1.0
Chantilly ,4151060238,7010573,49.2,2.4667,6.0,2.0,1.0
Charenton-du-Cher ,4151060253,1032603,46.7333,2.6333,0.0,1.0,0.0
Charenton-le-Pont ,4151060254,7007614,48.8167,2.4167,1.0,3.0,0.0
Charleville ,4151060256,4002541,48.816,3.677,1.0,0.0,1.0
Charlieu ,4151060258,7008758,46.1667,4.1667,2.0,0.0,1.0
Charmes ,4151060261,1032609,48.3667,6.2833,1.0,0.0,1.0
Charroux ,4151060274,7008597,46.15,.4167,1.0,0.0,1.0
Chartres ,4151060276,7008267,48.45,1.5,4.0,5.0,0.0
Ch_teau-Chinon ,4151060282,7009022,47.0667,3.9333,1.0,0.0,1.0
Ch_teau-du-Loir ,4151060284,1032493,47.7,.4167,1.0,0.0,1.0
Ch_teaudun ,4151060285,7008268,48.0667,1.3333,1.0,0.0,1.0
Ch_teau-Gontier ,4151060287,7008487,47.8167,-.7,0.0,1.0,0.0
Ch_teau-Porcien ,4151060301,1032488,49.5333,4.25,1.0,1.0,0.0
Ch_teauroux ,4151060307,7008273,46.8167,1.6833,2.0,0.0,1.0
Ch_teau-Thierry ,4151060309,7009027,49.05,3.4,1.0,0.0,1.0
Ch_tellerault ,4151060316,7009028,46.8167,.55,0.0,1.0,0.0
Ch_tenay-Malabry ,4151060321,7007981,48.7667,2.3,0.0,1.0,0.0
Ch_tillon ,4151060325,1032522,48.8,2.3,0.0,1.0,0.0
Chatou ,4151060340,7009033,48.8833,2.15,1.0,1.0,0.0
la Ch_tre ,4151060341,1033613,46.5833,1.9833,1.0,0.0,1.0
Chaumont ,4151060350,7009035,48.1167,5.1333,4.0,0.0,1.0
Chaumont-sur-Loire ,4151060354,1032635,47.4833,1.1833,0.0,1.0,0.0
Chauny ,4151060356,1032637,49.6167,3.2333,1.0,0.0,1.0
Chazay-d'Azergues ,4151060365,1032645,45.8667,4.7167,0.0,1.0,0.0
Chazelles-sur-Lyon ,4151060366,1032646,45.6333,4.3833,1.0,0.0,1.0
Chelles ,4151060369,7008004,48.8833,2.5833,0.0,1.0,0.0
Chennevi¨¨res-l¨¨s-Louvres ,4151060378,1032654,49.05,2.55,0.0,1.0,0.0
Chen_ve ,4151060380,1032651,47.2833,5,1.0,1.0,0.0
Cherbourg ,4151060384,7008211,49.6333,-1.6167,2.0,1.0,1.0
Chevilly ,4151060397,4002601,48.0333,1.8833,1.0,0.0,1.0
Chevilly-Larue ,4151060398,1032664,48.7667,2.3667,0.0,1.0,0.0
Chevreuse ,4151060399,7009039,48.7,2.05,0.0,1.0,0.0
Chevry-Cossigny ,4151060401,1032666,48.7167,2.6667,1.0,0.0,1.0
Choisy-le-Roi ,4151060413,7009040,48.7833,2.4333,0.0,1.0,0.0
Clairefontaine ,4151060428,1032683,48.6167,1.9167,1.0,0.0,1.0
Clelles ,4151060442,1032694,44.8167,5.6167,1.0,0.0,1.0
Clermont ,4151060445,1032695,49.3833,2.4333,1.0,0.0,1.0
Clermont-Ferrand ,4151060448,7008202,45.7833,3.0833,2.0,1.0,1.0
Clichy ,4151060452,7010041,48.9,2.3167,1.0,0.0,1.0
Clisson ,4151060454,1032701,47.0833,-1.2667,0.0,2.0,0.0
Cluny ,4151060456,7008243,46.4333,4.65,1.0,0.0,1.0
Cluses ,4151060459,7009045,46.0667,6.5833,1.0,0.0,1.0
Cognac ,4151060463,7008568,45.7,-.3167,1.0,0.0,1.0
Coligny ,4151060469,1032711,46.3833,5.3333,0.0,1.0,0.0
Colmar ,4151060476,7008119,48.0833,7.35,11.0,3.0,1.0
Colombes ,4151060478,1032717,48.9167,2.2333,0.0,1.0,0.0
Comines ,4151060494,1032729,50.7667,3,1.0,0.0,1.0
Compi¨¨gne ,4151060500,7010575,49.4167,2.8333,1.0,1.0,0.0
Concarneau ,4151060502,7009051,47.8833,-3.9167,0.0,5.0,0.0
Cond¨¦-sur-Noireau ,4151060510,7009053,48.85,-.55,1.0,0.0,1.0
Corbigny ,4151060538,1032762,47.25,3.6667,1.0,0.0,1.0
Cormatin ,4151060544,1032767,46.55,4.6833,2.0,0.0,1.0
Cosne-Cours-sur-Loire ,4151060559,7009059,47.4167,2.9167,1.0,0.0,1.0
Coubron ,4151060565,1032779,48.9167,2.5833,0.0,1.0,0.0
Coucy-le-Ch_teau-Auffrique ,4151060568,7010211,49.5333,3.3333,1.0,0.0,1.0
Couh¨¦ ,4151060574,1032784,46.3,.2,0.0,1.0,0.0
Coulommiers ,4151060583,1032791,48.8167,3.0833,1.0,0.0,1.0
Courbevoie ,4151060589,7009061,48.9,2.25,0.0,3.0,0.0
Courgent ,4151060605,1032806,48.9,1.6667,0.0,1.0,0.0
Courtalain ,4151060613,1032812,48.0833,1.15,1.0,0.0,1.0
Coutances ,4151060629,7008215,49.05,-1.4833,0.0,1.0,0.0
Creil ,4151060655,7007036,49.2667,2.4833,0.0,1.0,0.0
Cr¨¦mieu ,4151060656,7009063,45.7167,5.25,1.0,0.0,1.0
Cr¨¦teil ,4151060666,7009065,48.7833,2.4667,0.0,2.0,0.0
Le Creusot ,4151060667,7009272,46.8,4.433,0.0,1.0,0.0
Cuiseaux ,4151060702,1032874,46.5167,5.3833,1.0,0.0,1.0
Cuisery ,4151060704,7009070,46.55,5,1.0,0.0,1.0
Cusset ,4151060713,7009071,46.1333,3.45,1.0,1.0,0.0
Calvados ,4151060718,7002916,49.1667,-.5,0.0,1.0,0.0
Charente-Maritime ,4151060721,7002920,45.5,-.75,1.0,0.0,1.0
Corr¨¨ze ,4151060724,7002922,45.3333,1.8333,1.0,0.0,1.0
Cette-Eygun ,4151060730,7029676,42.916,-.576,1.0,1.0,0.0
Dammarie-l¨¨s-Lys ,4151090008,7009134,48.5167,2.65,0.0,1.0,0.0
Damville ,4151090019,1032901,48.8667,1.0667,2.0,0.0,1.0
Dax ,4151090031,7008181,43.7167,-1.05,0.0,2.0,0.0
Dieppe ,4151090057,7008922,49.9167,1.0833,6.0,2.0,1.0
Dieulefit ,4151090059,1032928,44.5167,5.0667,0.0,1.0,0.0
Dijon ,4151090064,7008224,47.3333,5.0333,30.0,17.0,1.0
Dinard-Saint-Enogat ,4151090066,1032935,48.6333,-2.05,0.0,1.0,0.0
Dol-de-Bretagne ,4151090075,7017026,48.55,-1.75,1.0,0.0,1.0
D_le ,4151090076,7009146,47.0833,5.5,5.0,2.0,1.0
Donz¨¨re ,4151090099,1032957,44.4333,4.7167,1.0,0.0,1.0
Dormans ,4151090102,1032960,49.0833,3.65,1.0,0.0,1.0
Dornach ,4151090103,4003362,47.743,7.3037,0.0,1.0,0.0
Douai ,4151090106,7008458,50.3667,3.0833,11.0,4.0,1.0
Douarnenez ,4151090107,1032964,48.0833,-4.3333,1.0,1.0,0.0
Douchy-les-Mines ,4151090110,7009150,50.3,3.3833,1.0,0.0,1.0
Drancy ,4151090124,7009153,48.9333,2.4333,0.0,1.0,0.0
Draveil ,4151090127,7009154,48.6833,2.4167,1.0,0.0,1.0
Dreux ,4151090128,7008269,48.7333,1.3833,2.0,0.0,1.0
Dunkirk ,4151090141,7010042,51.0333,2.3833,3.0,1.0,1.0
Dordogne ,4151090149,7002932,45.1667,.8167,1.0,0.0,1.0
Dr_me ,4151090151,7002934,44.5833,5.1667,2.0,0.0,1.0
Eaubonne ,4151120001,1032999,49,2.2833,0.0,1.0,0.0
_couen ,4151120015,7008036,49.0167,2.3667,0.0,4.0,0.0
Elbeuf ,4151120031,1033007,49.2833,1.0167,1.0,1.0,0.0
_pernay ,4151120056,7008342,49.0333,3.9667,2.0,1.0,1.0
_pinal ,4151120061,7008416,48.1667,6.4667,3.0,3.0,0.0
_ragny ,4151120070,1031662,49.0167,2.1,1.0,2.0,0.0
Ermont ,4151120072,1033027,49,2.25,0.0,1.0,0.0
Estagel ,4151120094,5001582,42.772751,2.6983,1.0,0.0,1.0
_tampes ,4151120104,7007986,48.4333,2.1667,1.0,0.0,1.0
Etampes-sur-Marne ,4151120105,4003736,49.034389,3.42048,1.0,0.0,1.0
_taples ,4151120106,7009166,50.5167,1.65,0.0,2.0,0.0
_tretat ,4151120111,7009168,49.7,.2,0.0,1.0,0.0
Eu ,4151120113,7009169,50.05,1.4167,4.0,1.0,1.0
_vian-les-Bains ,4151120121,7009171,46.4,6.5833,1.0,0.0,1.0
_vreux ,4151120125,7008924,49.05,1.1833,1.0,1.0,0.0
Eygali¨¨res ,4151120133,1033052,43.75,4.95,0.0,1.0,0.0
Eygui¨¨res ,4151120134,1033053,43.7,5.0167,0.0,1.0,0.0
Eure ,4151120140,7002936,49.1667,1,0.0,1.0,0.0
Eure-et-Loir ,4151120141,7002937,48.5,1.5833,1.0,0.0,1.0
Falaise ,4151150005,7009173,48.9,-.1833,1.0,1.0,0.0
Faverges ,4151150020,1033079,45.75,6.3,0.0,1.0,0.0
F¨¦camp ,4151150030,7009176,49.75,.3833,1.0,0.0,1.0
Felletin ,4151150033,7009177,45.8833,2.1667,1.0,0.0,1.0
la F¨¨re ,4151150042,7017250,49.6667,3.3667,1.0,0.0,1.0
Ferri¨¨res-en-Brie ,4151150047,1033091,48.8167,2.7167,1.0,0.0,1.0
La Fert¨¦-sous-Jouarre ,4151150055,7031878,48.95,3.135,2.0,1.0,1.0
Fins ,4151150064,1033098,50.0333,3.05,1.0,0.0,1.0
Fontainebleau ,4151150107,7008005,48.4,2.7,7.0,17.0,0.0
Fontenay-aux-Roses ,4151150120,1033144,48.7833,2.3,1.0,2.0,0.0
Fontenay-le-Comte ,4151150122,1033147,46.4667,-.8,1.0,0.0,1.0
Fontenay-l¨¨s-Briis ,4151150124,1033146,48.6167,2.15,0.0,1.0,0.0
Fontenay-sous-Bois ,4151150127,1033150,48.85,2.4667,0.0,1.0,0.0
Forbach ,4151150138,7009184,49.1833,6.9,1.0,0.0,1.0
Forcalquier ,4151150139,7009185,43.9333,5.7667,0.0,1.0,0.0
La Plaine du Forez ,4151150141,7017239,45.6833,4.1667,1.0,0.0,1.0
Forges-les-Eaux ,4151150144,1033157,49.6167,1.5333,0.0,1.0,0.0
Fresnes ,4151150187,7009187,48.75,2.3333,1.0,0.0,1.0
Fresne-Saint-Mam¨¨s ,4151150188,1033191,47.55,5.8667,1.0,0.0,1.0
Fr¨¦vent ,4151150202,1033181,50.2833,2.3,1.0,0.0,1.0
Fuveau ,4151150219,1033216,43.45,5.5667,1.0,0.0,1.0
Fourquevaux ,4151150221,7029462,40.5,1.616,1.0,0.0,1.0
Finist¨¨re ,4151150222,7002938,48.3333,-4,2.0,1.0,1.0
Gaillac ,4151180003,7009192,43.9,1.9167,1.0,1.0,0.0
Garches ,4151180018,7009195,48.85,2.1833,0.0,2.0,0.0
Garges-l¨¨s-Gonesse ,4151180023,1033241,48.9667,2.4167,1.0,0.0,1.0
Gennevilliers ,4151180049,7009201,48.9333,2.2833,0.0,1.0,0.0
Gentilly ,4151180054,7009202,48.8167,2.3333,1.0,0.0,1.0
Gif-sur-Yvette ,4151180075,7009204,48.6833,2.1333,0.0,1.0,0.0
Giromagny ,4151180083,1033273,47.75,6.8167,1.0,0.0,1.0
Gisors ,4151180086,7009208,49.2833,1.7833,1.0,0.0,1.0
Giverny ,4151180087,7009209,49.0667,1.5333,0.0,1.0,0.0
Givet ,4151180088,7009210,50.1333,4.8167,1.0,0.0,1.0
Givors ,4151180089,7009211,45.5833,4.7833,1.0,0.0,1.0
Givry ,4151180090,7009212,46.7833,4.75,1.0,0.0,1.0
Gondrecourt-le-Ch_teau ,4151180105,7009213,48.5167,5.5167,1.0,0.0,1.0
Gordes ,4151180109,7009215,43.9167,5.2,2.0,0.0,1.0
Gouvieux ,4151180126,5001527,49.184448,2.41388,0.0,1.0,0.0
Gra_ay ,4151180130,1033315,47.15,1.85,1.0,0.0,1.0
Granville ,4151180156,7009218,48.8333,-1.6,2.0,1.0,1.0
Grasse ,4151180157,7008767,43.6667,6.9333,2.0,5.0,0.0
Gravelines ,4151180161,7009219,50.9833,2.1333,1.0,0.0,1.0
Gray ,4151180165,7008357,47.45,5.5833,3.0,1.0,1.0
Gr¨¦gy-sur-Yerre ,4151180167,1033309,48.6667,2.6167,0.0,1.0,0.0
Grenoble ,4151180169,7008759,45.1833,5.7167,5.0,1.0,1.0
Grosrouvre ,4151180189,1033355,48.7833,1.7667,0.0,2.0,0.0
Guebwiller ,4151180196,7008121,47.9167,7.2167,0.0,1.0,0.0
Guichen ,4151180213,7017432,47.9667,-1.7833,1.0,0.0,1.0
Guingamp ,4151180222,1033377,48.5667,-3.15,1.0,0.0,1.0
Guiscard ,4151180225,7010577,49.6667,3.0667,1.0,0.0,1.0
Goyencourt ,4151180233,7029467,49.716,2.766,1.0,0.0,1.0
Gard ,4151180234,7002939,44,4,1.0,0.0,1.0
Gers ,4151180235,7002940,43.6667,.5,0.0,1.0,0.0
Gironde ,4151180236,7002941,44.75,-.6667,1.0,0.0,1.0
Hauterives ,4151210033,7009230,45.25,5.0167,0.0,1.0,0.0
Hayange ,4151210040,1033424,49.3333,6.0667,1.0,0.0,1.0
H¨¦ricourt ,4151210055,1033388,47.5833,6.75,1.0,0.0,1.0
Herserange ,4151210064,7009232,49.5167,5.7833,1.0,0.0,1.0
Hesdin ,4151210067,7008475,50.3667,2.05,1.0,0.0,1.0
Hondschoote ,4151210084,7009234,50.9833,2.5833,0.0,1.0,0.0
Honfleur ,4151210085,7009235,49.4167,.2333,1.0,0.0,1.0
Houplines ,4151210097,1033460,50.7,2.9167,1.0,0.0,1.0
Huningue ,4151210105,1033465,47.6,7.5833,2.0,0.0,1.0
Hy¨¨res ,4151210110,7023841,43.1167,6.1333,1.0,5.0,0.0
Haute-Garonne ,4151210112,7002942,43.4167,1.5,1.0,0.0,1.0
H¨¦rault ,4151210122,7002951,43.6667,3.5,2.0,0.0,1.0
Illkirch-Graffenstaden ,4151240012,1033477,48.5333,7.7333,1.0,0.0,1.0
Illzach ,4151240013,1033478,47.7833,7.3333,2.0,0.0,1.0
L' Isle-Adam ,4151240020,1033570,49.1167,2.2333,0.0,2.0,0.0
Issoire ,4151240026,7008203,45.55,3.25,1.0,0.0,1.0
Issoudun ,4151240028,7008276,46.95,1.9833,1.0,0.0,1.0
Is-sur-Tille ,4151240029,7008226,47.5333,5.1167,0.0,1.0,0.0
Ivry-la-Bataille ,4151240035,7009241,48.8833,1.4667,1.0,0.0,1.0
Ivry-sur-Seine ,4151240036,7009242,48.8167,2.3833,1.0,2.0,0.0
Ille-et-Vilaine ,4151240039,7002952,48.1667,-1.5833,2.0,0.0,1.0
Indre ,4151240040,7002953,46.75,1.5167,2.0,0.0,1.0
Indre-et-Loire ,4151240041,7002954,47.25,.75,0.0,2.0,0.0
Janville ,4151270007,1033505,48.2,1.8667,1.0,1.0,0.0
Joigny ,4151270023,7008253,47.9833,3.4,1.0,1.0,0.0
Juan-les Pins ,4151270044,1033535,43.65,7.1,0.0,1.0,0.0
Jura ,4151270060,7002956,46.8333,5.8333,1.0,0.0,1.0
Lorraine ,4151330002,7002888,49,6,3.0,0.0,1.0
La Fl¨¨che ,4151330081,1033648,47.7,-.0833,1.0,0.0,1.0
La Garde ,4151330086,1033652,43.1167,6.0167,0.0,1.0,0.0
Lagny ,4151330089,7017039,48.8833,2.7167,0.0,1.0,0.0
Lagrasse ,4151330093,7008367,43.092869,2.61925,1.0,0.0,1.0
Lamballe ,4151330121,7009261,48.4667,-2.5167,1.0,0.0,1.0
Landes ,4151330136,1112054,44.25,-1.0833,0.0,1.0,0.0
Langeais ,4151330145,7008316,47.35,.4333,1.0,0.0,1.0
Langon ,4151330147,1033783,44.55,-.2333,0.0,1.0,0.0
Langres ,4151330148,7008343,47.8833,5.3333,8.0,2.0,1.0
Languedoc ,4151330149,7002884,43.134191,1.666322,1.0,0.0,1.0
Laon ,4151330158,7010220,49.5667,3.6167,3.0,0.0,1.0
La Pomme ,4151330166,1033688,43.4167,5.5833,0.0,1.0,0.0
La Rochelle ,4151330179,7009264,46.1667,-1.1667,6.0,3.0,1.0
Lautenbach ,4151330213,7008122,47.95,7.1667,0.0,1.0,0.0
Laval ,4151330220,7008490,48.0667,-.75,5.0,0.0,1.0
le Lavandou ,4151330221,1033879,43.2167,6.35,0.0,1.0,0.0
Lavelanet ,4151330226,1033815,42.9333,1.8333,1.0,0.0,1.0
Lay-Saint-Christophe ,4151330239,1033819,48.75,6.2,0.0,1.0,0.0
Le Bugue ,4151330253,1033839,44.9167,.9333,0.0,1.0,0.0
Le Cateau-Cambr¨¦sis ,4151330256,4006209,50.105179,3.54312,1.0,0.0,1.0
Le Havre ,4151330274,7008927,49.5,.1,16.0,3.0,1.0
Le Mans ,4151330282,7008494,48,.2,7.0,2.0,1.0
Lemberg ,4151330286,1033960,49.0167,7.3833,1.0,1.0,0.0
Lens ,4151330299,7009278,50.4333,2.8333,1.0,0.0,1.0
Le Puy ,4151330323,7008205,45.05,3.8833,5.0,0.0,1.0
Levallois-Perret ,4151330401,1034027,48.9,2.2833,1.0,0.0,1.0
Levens ,4151330403,1034028,43.85,7.2333,1.0,0.0,1.0
Le V¨¦sinet ,4151330405,7009295,48.9,2.15,0.0,1.0,0.0
Liancourt ,4151330419,1034035,49.3333,2.4667,1.0,0.0,1.0
Libourne ,4151330422,1034037,44.9167,-.2333,2.0,1.0,1.0
le Li¨¨ge ,4151330425,7017038,47.2167,1.0833,1.0,1.0,0.0
Lille ,4151330448,7008461,50.65,3.0833,29.0,11.0,1.0
Limoges ,4151330452,7008410,45.8333,1.25,5.0,2.0,1.0
Lisieux ,4151330465,7008212,49.15,.2333,1.0,2.0,0.0
Lisle-sur-Tarn ,4151330471,4006432,43.8667,1.8,1.0,0.0,1.0
Livarot ,4151330474,1034069,49.0167,.1667,1.0,0.0,1.0
Livry-Gargan ,4151330481,1034075,48.9167,2.55,0.0,1.0,0.0
Lizy-sur-Ourcq ,4151330484,1034077,49.0333,3.0333,1.0,0.0,1.0
Loire ,4151330497,1034084,45.55,4.8,1.0,1.0,0.0
Longpont-sur-Orge ,4151330511,7017208,48.6333,2.2833,0.0,1.0,0.0
Longwy ,4151330522,7009303,49.5333,5.7667,1.0,0.0,1.0
Lorette ,4151330530,1034110,45.5167,4.5833,0.0,1.0,0.0
Lorient ,4151330532,7009307,47.75,-3.35,1.0,0.0,1.0
Loudun ,4151330544,1034122,47.0167,.0833,1.0,0.0,1.0
Loury ,4151330554,1034127,48,2.0833,1.0,0.0,1.0
Lun¨¦ville ,4151330578,7009313,48.5833,6.5,7.0,4.0,1.0
Lutterbach ,4151330586,1034150,47.7667,7.2833,1.0,0.0,1.0
Luxeuil-les-Bains ,4151330588,7017240,47.8167,6.4,1.0,1.0,0.0
Lyon ,4151330592,7008772,45.7667,4.8333,108.0,60.0,1.0
Lyons-la-For¨ºt ,4151330594,7009317,49.4,1.4667,1.0,1.0,0.0
Lyre ,4151330595,4006688,50.129925,4.849905,1.0,0.0,1.0
Landes ,4151330598,7002957,44,-.8667,1.0,2.0,0.0
Loir-et-Cher ,4151330602,7002929,47.5,1.5833,3.0,0.0,1.0
Lot ,4151330603,7002963,44.5833,1.6667,0.0,1.0,0.0
M_con ,4151360005,7008244,46.3,4.8333,3.0,0.0,1.0
Magny-en-Vexin ,4151360013,1034190,49.15,1.7833,1.0,0.0,1.0
Maisons-Laffitte ,4151360035,7009320,48.95,2.1333,1.0,0.0,1.0
Malakoff ,4151360039,7009321,48.8167,2.3,0.0,1.0,0.0
Mallemort ,4151360047,1034217,43.7167,5.1667,1.0,0.0,1.0
Malz¨¦ville ,4151360051,1034220,48.7167,6.2,1.0,1.0,0.0
Mane ,4151360059,4006851,43.9333,5.75,1.0,0.0,1.0
Manosque ,4151360061,1034227,43.8333,5.7833,0.0,1.0,0.0
Mantes-la-Jolie ,4151360064,7008063,48.9833,1.7167,1.0,1.0,0.0
Marly ,4151360127,1034277,50.35,3.55,0.0,2.0,0.0
Marmoutier ,4151360132,7008079,48.7,7.3833,1.0,0.0,1.0
Maromme ,4151360142,1034288,49.4833,1.0333,1.0,0.0,1.0
Marseilles ,4151360152,7008781,43.3,5.3667,49.0,38.0,1.0
Martin-_glise ,4151360163,1034305,49.9,1.15,1.0,0.0,1.0
Marvejols ,4151360165,7009330,44.55,3.3,1.0,0.0,1.0
Massy ,4151360172,1034314,48.7333,2.2833,1.0,0.0,1.0
Maubeuge ,4151360178,7009331,50.2833,3.9667,2.0,0.0,1.0
Mayenne ,4151360204,7008491,48.3,-.6167,1.0,1.0,0.0
Mazerolles-du-Raz¨¨s ,4151360213,4007036,43.138981,2.07148,1.0,0.0,1.0
Meaux ,4151360214,7008008,48.9667,2.9,3.0,0.0,1.0
Melle ,4151360227,7008585,46.2167,-.1333,0.0,1.0,0.0
Melun ,4151360229,7008009,48.5333,2.6667,1.0,0.0,1.0
Mennecy ,4151360237,1034350,48.5667,2.4333,1.0,0.0,1.0
Menton ,4151360241,7009337,43.7833,7.5,0.0,10.0,0.0
M¨¦rignac ,4151360254,1034169,44.8333,-.6,1.0,0.0,1.0
Merville ,4151360262,1034361,50.65,2.65,1.0,0.0,1.0
Metz ,4151360282,7008418,49.1167,6.1833,12.0,1.0,1.0
Meudon ,4151360284,7009340,48.8167,2.25,0.0,6.0,0.0
Meulan ,4151360285,1034370,49,1.9167,0.0,1.0,0.0
Meung-sur-Loire ,4151360286,1034371,47.8333,1.7,1.0,0.0,1.0
Meuse ,4151360288,1034373,48,5.55,1.0,0.0,1.0
Milly-la-For¨ºt ,4151360308,7009343,48.4,2.4667,0.0,2.0,0.0
Mirecourt ,4151360322,1034395,48.3,6.1333,1.0,0.0,1.0
Mitry-Mory ,4151360326,1034396,48.9833,2.6167,0.0,1.0,0.0
Mons ,4151360364,1034426,43.6833,6.5333,1.0,1.0,0.0
Montaigu ,4151360369,1034439,46.9667,-1.3,0.0,2.0,0.0
Montargis ,4151360376,7008336,48,2.7333,3.0,1.0,1.0
Montataire ,4151360377,1034445,49.2667,2.4,1.0,0.0,1.0
Montauban ,4151360378,7008454,44.0167,1.3333,5.0,4.0,1.0
Montbard ,4151360381,7009345,47.6333,4.3333,3.0,0.0,1.0
Montb¨¦liard ,4151360384,7009347,47.5167,6.8,4.0,1.0,1.0
Montbrison ,4151360389,1034454,45.6167,4.0667,1.0,0.0,1.0
Mont-de-Marsan ,4151360402,7009350,43.9,-.5,1.0,0.0,1.0
Montdidier ,4151360404,7009351,49.65,2.5833,1.0,0.0,1.0
Montfort-l'Amaury ,4151360420,7009356,48.7833,1.8167,1.0,0.0,1.0
Montgeron ,4151360428,7009359,48.7,2.45,0.0,1.0,0.0
Monthyon ,4151360436,1034486,49.0167,2.8333,0.0,1.0,0.0
Montigny-l¨¨s-Metz ,4151360447,1034493,49.1,6.15,1.0,0.0,1.0
Montigny-sur-Loing ,4151360449,4007470,48.33493,2.74595,0.0,1.0,0.0
Montm¨¦lian ,4151360466,1034507,45.5,6.0667,1.0,0.0,1.0
Montmirail ,4151360470,1034511,48.1,.8,1.0,0.0,1.0
Montmorency ,4151360473,7009368,48.9833,2.3167,1.0,1.0,0.0
Montoire-sur-le-Loir ,4151360477,7008325,47.75,.8667,1.0,1.0,0.0
Montpellier ,4151360478,7009369,43.6,3.8833,25.0,18.0,1.0
Montr¨¦al ,4151360485,1034522,47.5333,4.0333,1.0,0.0,1.0
Montrichard ,4151360493,1034530,47.35,1.1833,1.0,0.0,1.0
Montrouge ,4151360497,1034533,48.8167,2.3167,1.0,2.0,0.0
Morestel ,4151360517,7009374,45.6667,5.4667,0.0,1.0,0.0
Moret-sur-Loing ,4151360518,1034545,48.3667,2.8167,0.0,3.0,0.0
Morlaix ,4151360525,7009376,48.5833,-3.8333,0.0,1.0,0.0
Mormant ,4151360526,1034551,48.6,2.9,1.0,0.0,1.0
Mortagne-au-Perche ,4151360535,7018817,48.5167,.55,1.0,0.0,1.0
Morteau ,4151360538,7009379,47.05,6.5833,1.0,0.0,1.0
Mougins ,4151360550,4007565,43.6,6.9833,0.0,2.0,0.0
Moulinet ,4151360553,1034570,43.95,7.4167,1.0,0.0,1.0
Moulins ,4151360554,7008198,46.5667,3.3333,10.0,4.0,1.0
Moutiers-Saint-Jean ,4151360570,4007588,47.56213,4.21985,1.0,0.0,1.0
Mugron ,4151360581,1034590,43.75,-.7333,1.0,0.0,1.0
Mulhouse ,4151360584,7012333,47.75,7.35,5.0,2.0,1.0
Mussy-sur-Seine ,4151360596,7010658,47.9667,4.5,1.0,0.0,1.0
Mutzig ,4151360597,7009386,48.55,7.45,0.0,1.0,0.0
Moselle ,4151360600,7002972,49,7,1.0,0.0,1.0
Montlaur ,4151360601,7029597,43.133,2.566,0.0,1.0,0.0
Marne ,4151360604,7002967,48.9167,4.25,0.0,1.0,0.0
Meurthe-et-Moselle ,4151360606,7002969,48.5833,6.1667,1.0,0.0,1.0
Meuse ,4151360607,7002970,49,5.5,0.0,1.0,0.0
Nancy ,4151390005,7008412,48.7,6.2,38.0,19.0,1.0
Nanterre ,4151390010,1034618,48.8833,2.2167,0.0,1.0,0.0
Nantes ,4151390011,7008482,47.2333,-1.5833,28.0,8.0,1.0
Narbonne ,4151390019,7008368,43.1833,3,3.0,2.0,1.0
Nemours ,4151390026,7009399,48.2667,2.7,1.0,0.0,1.0
Nesle ,4151390031,1034633,49.75,2.9167,0.0,1.0,0.0
Neufch_teau ,4151390036,1034637,48.35,5.7,1.0,0.0,1.0
Neuilly-sur-Marne ,4151390047,1034646,48.8667,2.55,0.0,2.0,0.0
Neuilly-sur-Seine ,4151390048,7009402,48.8833,2.2667,3.0,17.0,0.0
Neuville-de-Poitou ,4151390054,1034653,46.6833,.25,1.0,0.0,1.0
Neuwiller-l¨¨s-Saverne ,4151390063,7008080,48.8167,7.4,1.0,0.0,1.0
Nevers ,4151390065,7008240,47,3.15,1.0,0.0,1.0
Nice ,4151390067,7008773,43.7,7.2667,8.0,19.0,0.0
N_mes ,4151390073,7008371,43.8333,4.35,13.0,7.0,1.0
Niort ,4151390074,7009406,46.3167,-.45,3.0,1.0,1.0
Nogent-le-Rotrou ,4151390088,1034676,48.3167,.8333,2.0,0.0,1.0
Nogent-sur-Marne ,4151390089,7009408,48.8333,2.5,1.0,7.0,0.0
Nogent-sur-Seine ,4151390091,7009409,48.5,3.5167,1.0,0.0,1.0
Nohant-Vicq ,4151390093,7016434,46.6333,1.9667,0.0,1.0,0.0
Noisy-le-Grand ,4151390100,1034685,48.85,2.55,0.0,1.0,0.0
Nonancourt ,4151390106,1034691,48.7667,1.2167,1.0,0.0,1.0
Nonant-le-Pin ,4151390107,1034692,48.7,.2167,1.0,0.0,1.0
Normandy ,4151390110,7002886,49.126305,-0.074555,2.0,3.0,0.0
Noroy-le-Bourg ,4151390112,1034695,47.6167,6.3,1.0,0.0,1.0
Noyers ,4151390130,1034708,47.7,3.9833,1.0,0.0,1.0
Noyon ,4151390131,7010580,49.5833,3,1.0,1.0,0.0
Nozeroy ,4151390134,1034711,46.7833,6.05,1.0,0.0,1.0
Ni¨¨vre ,4151390144,7002975,47.0833,3.5833,1.0,0.0,1.0
Nord ,4151390145,7002976,50.5,3.5,1.0,0.0,1.0
Obernai ,4151420003,7007682,48.4667,7.5,0.0,1.0,0.0
Oberseebach ,4151420004,1034718,48.9667,7.9833,1.0,0.0,1.0
Oignies ,4151420012,1034724,50.4667,2.9833,1.0,1.0,0.0
Orange ,4151420034,7008803,44.1333,4.8,0.0,1.0,0.0
Orbec ,4151420036,1034740,49.0167,.4167,1.0,0.0,1.0
Orchamps ,4151420040,1034744,47.15,5.6667,0.0,1.0,0.0
Orgelet-le-Bourget ,4151420043,1034748,46.5167,5.6167,1.0,0.0,1.0
Orgeval ,4151420047,1034750,48.9,1.9833,0.0,1.0,0.0
Orl¨¦anais ,4151420053,7012207,46.300033,-0.070908,1.0,1.0,0.0
Orl¨¦ans ,4151420054,7008337,47.9,1.9,17.0,6.0,1.0
Ornans ,4151420057,7009418,47.1167,6.1333,1.0,0.0,1.0
Orsay ,4151420063,1034761,48.7,2.2,0.0,3.0,0.0
Oullins ,4151420081,7009421,45.7167,4.8,0.0,3.0,0.0
Oyonnax ,4151420093,1034780,46.25,5.6667,0.0,1.0,0.0
Oise ,4151420096,7002977,49.1,2.75,0.0,1.0,0.0
Orne ,4151420097,7002978,48.6667,.0833,1.0,0.0,1.0
Picardy ,4151450001,7002890,49.8333,2.8333,0.0,1.0,0.0
Palaiseau ,4151450010,7009423,48.6833,2.2333,1.0,0.0,1.0
Paris ,4151450026,7008038,48.8667,2.3333,1031.0,1843.0,0.0
Parthenay ,4151450028,1034809,46.65,-.2333,2.0,1.0,1.0
Passy ,4151450031,7009424,45.9167,6.7,0.0,1.0,0.0
Pau ,4151450033,7031499,43.301,-.372,5.0,2.0,1.0
P¨¦rigueux ,4151450062,7008163,45.2,.7333,2.0,2.0,0.0
P¨¦ronne ,4151450066,1034787,49.9333,2.95,1.0,0.0,1.0
Perpignan ,4151450068,7008383,42.7,2.9,4.0,5.0,0.0
Perros-Guirec ,4151450075,7009426,48.8167,-3.45,0.0,1.0,0.0
Petit-Fort-Philippe ,4151450085,1034837,51,2.1167,0.0,1.0,0.0
Picquigny ,4151450098,1034846,49.95,2.15,1.0,0.0,1.0
Pierrefonds ,4151450108,7010581,49.35,2.9833,0.0,1.0,0.0
Pignans ,4151450115,1034861,43.3167,6.2333,1.0,0.0,1.0
Pithiviers ,4151450124,1034868,48.1667,2.25,1.0,0.0,1.0
Plaisance ,4151450128,5000306,43.606361,0.04834,1.0,1.0,0.0
Plan-d'Orgon ,4151450131,1034874,43.8,5,0.0,1.0,0.0
Plo_rmel ,4151450140,1034878,47.9333,-2.3833,1.0,0.0,1.0
Poissy ,4151450159,7008066,48.9333,2.0333,0.0,2.0,0.0
Poitiers ,4151450160,7017418,46.5833,.3333,6.0,0.0,1.0
Poitou ,4151450161,7002891,45.118085,-0.020167,1.0,0.0,1.0
Poligny ,4151450165,7009435,46.8333,5.7,1.0,1.0,0.0
Ponc¨¦-sur-le-Loir ,4151450170,7008496,47.7667,.6667,0.0,1.0,0.0
Pons ,4151450172,1034904,45.5833,-.5333,1.0,0.0,1.0
Pontallier-sur-Sa_ne ,4151450173,1034932,47.3,5.4167,1.0,1.0,0.0
Pontarlier ,4151450176,7009439,46.9,6.3333,1.0,0.0,1.0
Pontaubert ,4151450177,1034934,47.4833,3.8667,0.0,1.0,0.0
Pont-Audemer ,4151450178,7009440,49.3667,.5167,1.0,0.0,1.0
Pont-Aven ,4151450181,7009441,47.85,-3.7333,0.0,1.0,0.0
Pont-de-l'Arche ,4151450190,7009443,49.3,1.1667,1.0,0.0,1.0
Pont-de-Vaux ,4151450196,7009444,46.4333,4.9333,1.0,0.0,1.0
Pontlevoy ,4151450212,1034947,47.4,1.25,1.0,0.0,1.0
Pont-Remy ,4151450215,1034912,50.05,1.9167,1.0,0.0,1.0
Pornic ,4151450225,1034952,47.0667,-2.0833,0.0,1.0,0.0
Pourri¨¨res ,4151450244,4008879,43.5,5.7333,1.0,1.0,0.0
Pourville ,4151450246,7009449,49.9167,1.0333,0.0,1.0,0.0
Preignac ,4151450264,4008912,44.5833,-.3,0.0,1.0,0.0
Puget-sur Argens ,4151450282,1034997,43.45,6.6833,1.0,0.0,1.0
Puiseaux ,4151450286,1034999,48.2,2.4667,1.0,0.0,1.0
Puteaux ,4151450294,7009452,48.8833,2.25,0.0,4.0,0.0
Pas-de-Calais ,4151450300,7002981,50.4167,2.6667,1.0,1.0,0.0
Puy-de-D_me ,4151450302,7002982,45.6667,3.2,1.0,1.0,0.0
Pyr¨¦n¨¦es-Orientales ,4151450304,7002984,42.5,2.3333,1.0,0.0,1.0
Qui¨¦vy ,4151480016,1035017,50.1667,3.4167,1.0,0.0,1.0
Quimper ,4151480019,7008262,48,-4.1,3.0,2.0,1.0
Rh_ne-Alpes ,4151510000,7002897,45.317635,5.436955,1.0,0.0,1.0
Ravi¨¨res ,4151510019,1035050,47.7167,4.2167,1.0,0.0,1.0
Rheims ,4151510033,7011060,49.25,4.0333,10.0,2.0,1.0
R¨¦milly ,4151510035,1035035,49.0167,6.4,1.0,1.0,0.0
Remiremont ,4151510036,7008420,48.0167,6.5833,1.0,0.0,1.0
Rennes ,4151510041,7008263,48.1,-1.6667,5.0,5.0,0.0
Rethel ,4151510046,7009464,49.5167,4.3667,1.0,0.0,1.0
Revel ,4151510050,1035070,45.1833,5.8667,1.0,0.0,1.0
Ribeauvill¨¦ ,4151510060,7009465,48.2,7.3333,3.0,0.0,1.0
Ribemont ,4151510062,1035081,49.8,3.4667,1.0,0.0,1.0
Riez ,4151510069,7017419,43.8167,6.1,1.0,0.0,1.0
Riom ,4151510077,7011061,45.9,3.1167,3.0,0.0,1.0
Rive-de-Gier ,4151510083,1035099,45.5333,4.6,1.0,0.0,1.0
Rochefort ,4151510096,7009474,45.95,-.9667,2.0,1.0,1.0
La Roche-sur-Yon ,4151510107,7007628,46.6667,-1.4167,1.0,1.0,0.0
Rocroi ,4151510112,7009475,49.9333,4.5167,1.0,0.0,1.0
Rodez ,4151510114,7008423,44.35,2.5667,5.0,0.0,1.0
Romenay ,4151510128,1035130,46.5,5.05,1.0,2.0,0.0
Romorantin ,4151510131,7017235,47.3667,1.7333,0.0,1.0,0.0
Roquebrune ,4151510138,7017267,43.7833,7.45,0.0,2.0,0.0
Roquevaire ,4151510145,1035143,43.3333,5.6,1.0,0.0,1.0
Rosny-sur-Seine ,4151510155,7009484,49,1.6333,0.0,1.0,0.0
Roubaix ,4151510157,7009485,50.7,3.1667,1.0,0.0,1.0
Rouen ,4151510159,7008929,49.4333,1.0833,35.0,17.0,1.0
Rueil-Malmaison ,4151510195,7016452,48.8667,2.1833,1.0,1.0,0.0
Rh_ne ,4151510208,7002985,45.75,4.8333,2.0,0.0,1.0
Saint-Aignan ,4151540021,7016435,47.2667,1.3667,0.0,1.0,0.0
Saint Arnoult-en-Yvelines ,4151540047,1035251,48.5667,1.9333,1.0,0.0,1.0
Saint-B¨¦at ,4151540066,1035263,42.9167,.7,1.0,0.0,1.0
Saint-Beno_t ,4151540068,1035265,48.6667,1.9167,1.0,0.0,1.0
Saint-Brieuc ,4151540083,7017410,48.5167,-2.75,3.0,0.0,1.0
Saint-Claude ,4151540103,7009615,46.3833,5.8667,1.0,1.0,0.0
Saint-Cloud ,4151540105,7009616,48.85,2.2,3.0,3.0,0.0
Saint-Denis ,4151540116,7009706,48.95,2.3833,1.0,4.0,0.0
Saint Denis-de-l'H_tel ,4151540117,1035302,47.8667,2.1167,2.0,0.0,1.0
Saint Didier ,4151540121,1035306,44.0167,5.1167,0.0,1.0,0.0
Saint-Di¨¦ ,4151540123,7009618,48.2833,6.95,1.0,0.0,1.0
Sainte-Menehould ,4151540155,1035583,49.0833,4.9,1.0,0.0,1.0
Saintes ,4151540164,7008586,45.7333,-.6333,1.0,1.0,0.0
Saint-Gaudens ,4151540199,7009628,43.1167,.7333,1.0,1.0,0.0
Saint Genis-de-Saintange ,4151540206,1035335,45.4833,-.5667,0.0,1.0,0.0
Saint-Geoire-en-Valdaine ,4151540212,1035337,45.4667,5.6333,0.0,1.0,0.0
Saint-Germain-en-Laye ,4151540226,7018796,48.8833,2.0667,5.0,4.0,1.0
Saint-Gilles ,4151540240,7008348,43.6667,4.4333,1.0,0.0,1.0
Saint-Gilles-du-Gard ,4151540242,7008349,43.676762,4.42984,2.0,0.0,1.0
Saint-Girons ,4151540243,1035361,42.9833,1.1333,2.0,0.0,1.0
Saint-Hippolyte ,4151540255,1136805,47.3167,6.8167,2.0,0.0,1.0
Saint-Hippolyte-du-Fort ,4151540256,1035369,43.9667,3.85,1.0,0.0,1.0
Saint Jean-d'Ang¨¦ly ,4151540263,7009634,45.95,-.5167,1.0,0.0,1.0
Saint-Jean-de-Braye ,4151540266,1035378,47.9,1.9667,1.0,0.0,1.0
Saint-Jean-de-Luz ,4151540270,7009635,43.3833,-1.65,0.0,1.0,0.0
Saint-Laurent-du-Var ,4151540309,1035411,43.6667,7.1833,0.0,3.0,0.0
Saint-Leu-d'Esserent ,4151540323,7010585,49.2167,2.4167,0.0,1.0,0.0
Saint-Leu-la-For¨ºt ,4151540324,1035418,49.0333,2.25,1.0,0.0,1.0
Saint-L_ ,4151540326,7008219,49.1167,-1.0833,1.0,0.0,1.0
Saint-Maixent-L'_cole ,4151540334,4009744,46.4167,-.2,1.0,0.0,1.0
Saint-Malo ,4151540335,7009645,48.65,-2,3.0,0.0,1.0
Saint-Mand¨¦ ,4151540338,1035429,48.8333,2.4167,0.0,2.0,0.0
Saint-Marcellin ,4151540341,1035432,45.1667,5.3333,1.0,0.0,1.0
Saint-Martin-de-Nigelles ,4151540351,1035445,48.6167,1.6167,0.0,1.0,0.0
Saint-Martin-de-R¨¦ ,4151540353,4009749,46.2,-1.4167,0.0,1.0,0.0
Saint-Maur-des-Foss¨¦s ,4151540368,7008040,48.8,2.45,0.0,1.0,0.0
Saint-Maurice ,4151540369,1035456,48.8167,2.4333,1.0,1.0,0.0
Saint-Mihiel ,4151540388,7009648,48.9,5.55,2.0,0.0,1.0
Saint-Nicolas-de-Port ,4151540399,4009766,48.6311,6.30159,0.0,1.0,0.0
Saint-Omer ,4151540403,7011062,50.75,2.25,9.0,0.0,1.0
Saint-Ouen ,4151540406,1035475,48.9,2.35,1.0,0.0,1.0
Saint-Paul ,4151540416,7009704,43.7,7.1167,0.0,1.0,0.0
Saint-Paulien ,4151540420,1035486,45.15,3.8167,1.0,0.0,1.0
Saint-Prix ,4151540454,1035506,49.0167,2.2667,0.0,1.0,0.0
Saint Quentin ,4151540455,7010562,49.85,3.2833,4.0,2.0,1.0
Saint-Quentin-la-Poterie ,4151540458,4009786,44.05,4.45,1.0,0.0,1.0
Saint Rambert-en-Bugey ,4151540460,1035516,45.95,5.4333,0.0,1.0,0.0
Saint-Sauveur ,4151540484,1136809,47.8,6.3833,1.0,0.0,1.0
Saint-Tropez ,4151540508,7009658,43.2667,6.65,1.0,2.0,0.0
Salies-de-B¨¦arn ,4151540539,7009662,43.4667,-.9167,0.0,1.0,0.0
Salon-de-Provence ,4151540553,7009664,43.6333,5.1,1.0,0.0,1.0
Samer ,4151540556,1035608,50.6333,1.75,1.0,0.0,1.0
Sanary-sur-Mer ,4151540559,1035610,43.1167,5.8,0.0,1.0,0.0
Santenay ,4151540569,1035619,46.9167,4.7,1.0,0.0,1.0
Sarrebourg ,4151540582,7017184,48.7333,7.05,1.0,0.0,1.0
Saujon ,4151540592,7008588,45.6667,-.9167,1.0,0.0,1.0
Saulieu ,4151540595,7009668,47.2833,4.2333,1.0,1.0,0.0
Sauve ,4151540608,1035650,43.9333,3.9333,1.0,0.0,1.0
Saverne ,4151540617,7009673,48.75,7.3667,1.0,0.0,1.0
Sceaux ,4151540628,7007998,48.7833,2.3,2.0,5.0,0.0
Sedan ,4151540640,7009674,49.7,4.95,3.0,0.0,1.0
Segr¨¦ ,4151540644,1035676,47.6833,-.85,1.0,0.0,1.0
S¨¦lestat ,4151540650,7008081,48.2667,7.4667,1.0,1.0,0.0
Semur-en-Auxois ,4151540659,7008227,47.5,4.3333,0.0,1.0,0.0
Senlis ,4151540664,7010586,49.2,2.5833,2.0,1.0,1.0
Sens ,4151540672,7008255,48.2,3.3,2.0,1.0,1.0
Septeuil ,4151540675,1035700,48.9,1.6667,0.0,1.0,0.0
Serri¨¨res ,4151540690,1035708,45.3167,4.75,1.0,0.0,1.0
S¨¨te ,4151540696,7009682,43.4167,3.7167,2.0,0.0,1.0
S¨¨vres ,4151540700,7007999,48.8167,2.2167,7.0,17.0,0.0
S¨¦zanne ,4151540707,1035202,48.7333,3.7333,1.0,0.0,1.0
Sissonne ,4151540724,1035731,49.5833,3.9,1.0,0.0,1.0
Soissons ,4151540734,7010563,49.3833,3.3333,1.0,0.0,1.0
Solesmes ,4151540739,1035745,50.1833,3.5,1.0,0.0,1.0
Solli¨¨s-Pont ,4151540744,1035749,43.1833,6.0333,1.0,0.0,1.0
Sombernon ,4151540749,1035753,47.3,4.7,1.0,0.0,1.0
Sor¨¨ze ,4151540762,4010604,43.45,2.0667,1.0,1.0,0.0
Sorgues ,4151540763,7009688,44.008259,4.87348,0.0,1.0,0.0
Strasbourg ,4151540794,7012346,48.5833,7.75,44.0,17.0,1.0
Suresnes ,4151540803,7009692,48.8667,2.2167,1.0,0.0,1.0
Somme ,4151540815,7003216,49.9167,2.5,2.0,2.0,0.0
Sa_ne-et-Loire ,4151540816,7002962,46.75,4.75,1.0,0.0,1.0
Sarthe ,4151540817,7002986,48,.0833,4.0,1.0,1.0
Seine-et-Marne ,4151540820,7002973,48.5,3.0833,2.0,1.0,1.0
D¨¦partement de la Seine-Maritime ,4151540821,7002988,49.75,1,1.0,1.0,0.0
Talant ,4151570005,1035808,47.3167,5,1.0,0.0,1.0
Talence ,4151570007,1035809,44.8333,-.5833,1.0,1.0,0.0
Tarbes ,4151570021,7009490,43.2333,.0833,1.0,1.0,0.0
Thann ,4151570047,7009500,47.8167,7.0833,2.0,0.0,1.0
Th¨¦m¨¦ricourt ,4151570050,1035839,49.0833,1.9,0.0,1.0,0.0
Thiais ,4151570058,7009501,48.7667,2.3833,0.0,2.0,0.0
Thiverval-Grignon ,4151570073,1035859,48.85,1.9167,1.0,0.0,1.0
Thiviers ,4151570074,1035860,45.4,.9333,1.0,0.0,1.0
Tonneins ,4151570102,1035884,44.4,.3167,0.0,1.0,0.0
Toul ,4151570111,7009506,48.6833,5.9,1.0,0.0,1.0
Toulon ,4151570112,7008794,43.1167,5.9167,20.0,11.0,1.0
Toulouse ,4151570114,7008441,43.6167,1.4333,34.0,20.0,1.0
Tourcoing ,4151570117,7009508,50.7333,3.1667,1.0,0.0,1.0
Tournan-en-Brie ,4151570120,1035896,48.7333,2.7667,1.0,0.0,1.0
Tournon ,4151570122,1035897,45.0833,4.8167,2.0,1.0,1.0
Tournus ,4151570123,7008250,46.55,4.9167,1.0,0.0,1.0
Tours ,4151570128,7008323,47.3833,.7,11.0,12.0,0.0
Tr¨¦guier ,4151570147,7009509,48.7833,-3.2333,0.0,1.0,0.0
Triel-sur-Seine ,4151570161,1035921,48.9833,2.0167,0.0,1.0,0.0
Trouville ,4151570173,7009512,49.3667,.0833,0.0,2.0,0.0
Troyes ,4151570174,7008350,48.3,4.0833,18.0,4.0,1.0
Tarn ,4151570187,7003217,43.8333,2,1.0,1.0,0.0
Uz¨¨s ,4151600015,7008374,44.0167,4.4167,3.0,1.0,1.0
Valence ,4151630016,7008757,44.9333,4.9,1.0,0.0,1.0
Valenciennes ,4151630018,7008471,50.3667,3.5333,16.0,4.0,1.0
Valenton ,4151630022,1035976,48.75,2.4667,0.0,1.0,0.0
Vallauris ,4151630027,7009709,43.5833,7.05,0.0,2.0,0.0
Vallon-Pont-d'Arc ,4151630035,1035985,44.4,4.4,0.0,1.0,0.0
Valmondois ,4151630038,7009710,49.1,2.2,0.0,2.0,0.0
Valognes ,4151630041,1035991,49.5167,-1.4667,1.0,0.0,1.0
Vannes ,4151630052,7009712,47.6667,-2.7333,0.0,1.0,0.0
Vanves ,4151630055,1036001,48.8333,2.2833,0.0,2.0,0.0
Varang¨¦ville ,4151630058,1036004,48.65,6.3,0.0,1.0,0.0
Vars ,4151630066,1036012,44.6167,6.6833,0.0,1.0,0.0
Varzy ,4151630067,7009714,47.35,3.3833,1.0,1.0,0.0
Venarey-les-Laumes ,4151630104,1036044,47.5333,4.4333,1.0,0.0,1.0
Vence ,4151630106,7009717,43.7167,7.1,0.0,5.0,0.0
Verdun-sur-Meuse ,4151630120,7013153,43.8167,1.2167,3.0,1.0,1.0
Vermenton ,4151630127,7008256,47.6667,3.7167,1.0,0.0,1.0
Vernon ,4151630135,7009720,49.0833,1.4833,1.0,0.0,1.0
Vernouillet ,4151630136,1036069,48.9667,1.9833,0.0,1.0,0.0
Versailles ,4151630142,7008070,48.8,2.1333,29.0,28.0,1.0
Vesoul ,4151630157,1036086,47.6333,6.15,2.0,2.0,0.0
Viarmes ,4151630168,1036091,49.1333,2.3667,1.0,0.0,1.0
Vichy ,4151630172,7009724,46.1333,3.4167,1.0,4.0,0.0
Vic-sur-Seille ,4151630178,7009727,48.7833,6.5167,1.0,0.0,1.0
Vierzon ,4151630189,1036106,47.2333,2.05,1.0,0.0,1.0
Villefranche-de-Conflent ,4151630228,5001585,42.586578,2.36957,1.0,0.0,1.0
Villefranche-sur-Mer ,4151630231,7016449,43.7,7.3,0.0,1.0,0.0
Villefranche-sur-Sa_ne ,4151630232,7016450,45.9833,4.7167,1.0,0.0,1.0
Villeneuve-Saint-Georges ,4151630254,1036152,48.7333,2.45,0.0,1.0,0.0
Villeneuve-sur-Lot ,4151630257,7007620,44.4,.7167,1.0,1.0,0.0
Villeparisis ,4151630264,1036169,48.95,2.6167,1.0,0.0,1.0
Villers-Cotter¨ºts ,4151630274,7009736,49.25,3.1,1.0,0.0,1.0
Villers-l¨¨s-Nancy ,4151630279,1036184,48.6667,6.15,1.0,0.0,1.0
Villeurbanne ,4151630288,7009737,45.7667,4.9,1.0,0.0,1.0
Villiers-le-Bel ,4151630295,1036198,49.0167,2.3833,1.0,2.0,0.0
Villiers-sur-Marne ,4151630300,1036200,48.8333,2.5667,0.0,1.0,0.0
Vimoutiers ,4151630303,1036203,48.9167,.2,0.0,1.0,0.0
Vinay ,4151630306,1036206,45.2,5.4,1.0,0.0,1.0
Vincennes ,4151630307,7009740,48.85,2.45,4.0,0.0,1.0
Vire ,4151630312,7009743,48.8333,-.8833,1.0,1.0,0.0
Viroflay ,4151630316,1036214,48.7833,2.1833,0.0,3.0,0.0
Viry-Ch_tillon ,4151630318,1036216,48.6667,2.3833,0.0,1.0,0.0
Vitr¨¦ ,4151630321,7009745,48.1167,-1.2,1.0,0.0,1.0
Vitry-le-Fran_ois ,4151630326,7009747,48.7333,4.6,1.0,0.0,1.0
Voreppe ,4151630352,7009750,45.3,5.6333,1.0,0.0,1.0
Voutenay-sur-Cure ,4151630364,1036254,47.5667,3.7667,0.0,1.0,0.0
Var ,4151630372,7003220,43.395441,6.294605,1.0,2.0,0.0
Villeneuve d'Aumont ,4151630373,7029466,46.933,6.033,1.0,0.0,1.0
Val-d'Oise ,4151630375,7003219,49.0833,2.25,1.0,1.0,0.0
Vaucluse ,4151630377,7008006,44,5.1667,1.0,1.0,0.0
Vend¨¦e ,4151630378,7003223,46.6667,-1.3333,1.0,1.0,0.0
Vosges ,4151630382,7003225,48.1667,6.3333,3.0,1.0,1.0
Wassy ,4151660011,7009515,48.5,4.9833,1.0,1.0,0.0
Wimereux ,4151660024,1036281,50.7667,1.6167,0.0,1.0,0.0
Wissant ,4151660029,7017430,50.8667,1.6667,0.0,1.0,0.0
Yport ,4151720006,1036304,49.7333,.3333,0.0,1.0,0.0
Yonne ,4151720013,7003226,47.8333,4.25,2.0,0.0,1.0
Yvelines ,4151720014,7003227,48.8333,1.9167,0.0,1.0,0.0
Neuville-saint-vaast ,4151750006,7029476,50.35,2.779,0.0,1.0,0.0
Fresnay-sur-sarthe ,4151750007,7029477,48.283,.016,1.0,0.0,1.0
Chavagnes-en-Paillers ,4151750009,7030604,46.9,-1.25,1.0,0.0,1.0
Finland ,4152000000,1000069,64,26,1.0,0.0,1.0
_ht_ri ,4152000003,1031258,62.5667,24.1333,0.0,1.0,0.0
Alavus ,4152000008,1031265,62.5833,23.5833,1.0,0.0,1.0
Etel_-Suomen L__ni ,4152120000,7024075,60.8333,26,1.0,0.0,1.0
Espoo ,4152120005,7010360,60.1667,24.7,0.0,1.0,0.0
Forssa ,4152150001,1031279,60.8167,23.633,1.0,0.0,1.0
H_meenlinna ,4152210005,7009878,61,24.4167,1.0,0.0,1.0
Hamina ,4152210006,1031289,60.55,27.25,2.0,0.0,1.0
Helsinki ,4152210016,7009880,60.1333,25,6.0,28.0,0.0
Jyv_skyl_ ,4152270017,7009882,62.2667,25.8333,2.0,0.0,1.0
Kangasniemi ,4152300005,1031342,62.0167,26.5833,1.0,0.0,1.0
Kaskinen ,4152300018,1031354,62.3833,21.1667,1.0,0.0,1.0
Kotka ,4152300060,1031395,60.4333,26.9167,1.0,0.0,1.0
Kuopio ,4152300069,7009883,62.9,27.6667,1.0,0.0,1.0
Kuortane ,4152300070,1031405,62.8,23.5,1.0,0.0,1.0
Liminka ,4152330025,1031440,64.8333,25.3333,1.0,0.0,1.0
Lovisa ,4152330032,1031447,60.45,26.25,1.0,0.0,1.0
Martti ,4152360006,1031456,67.4667,28.3333,1.0,0.0,1.0
Nurmes ,4152390007,1031476,63.5167,29.1667,1.0,0.0,1.0
Oulu ,4152420008,1031485,65,25.4333,1.0,0.0,1.0
Pori ,4152450026,7009893,61.4667,21.75,1.0,0.0,1.0
Porvoo ,4152450029,1031270,60.4,25.6667,2.0,0.0,1.0
Tampere ,4152570003,7009960,61.49781,23.76226,1.0,0.0,1.0
Turku ,4152570013,7009962,60.45,22.25,4.0,5.0,0.0
Uusikaupunki ,4152600005,7009963,60.8,21.4167,1.0,0.0,1.0
Vaasa ,4152630003,7009964,63.1,21.6,2.0,0.0,1.0
Ylih_rm_ ,4152720001,1031628,63.1667,22.75,1.0,0.0,1.0
Germany ,4180000000,7000084,51.5,10.5,47.0,14.0,1.0
Aachen ,4180000002,7004799,50.770833,6.105278,16.0,7.0,1.0
Abtsgm¨¹nd ,4180000010,7005986,48.883333,10,0.0,1.0,0.0
Achim ,4180000015,1038110,53.033333,9.016667,1.0,1.0,0.0
Albbruck ,4180000057,1038139,47.6,8.133333,1.0,0.0,1.0
Allstedt ,4180000077,7012789,51.4,11.383333,1.0,0.0,1.0
Altdorf ,4180000093,1038166,49.3875,11.357222,3.0,0.0,1.0
Altenau ,4180000099,7005628,51.8,10.45,1.0,0.0,1.0
Altenbruch ,4180000105,1038174,53.816667,8.766667,1.0,0.0,1.0
Altenburg ,4180000107,7012790,50.983333,12.45,2.0,0.0,1.0
Altensteig ,4180000126,1038186,48.583333,8.6,1.0,0.0,1.0
Amberg ,4180000158,7012357,49.441389,11.862222,2.0,0.0,1.0
Amelinghausen ,4180000159,1038201,53.116667,10.216667,0.0,1.0,0.0
Angermund ,4180000175,7004876,51.3333,6.7833,1.0,0.0,1.0
Anhalt ,4180000178,7005682,51.989765,11.873975,1.0,0.0,1.0
Anholt ,4180000179,7004902,51.85,6.433333,2.0,0.0,1.0
Anklam ,4180000180,7004791,53.866667,13.7,1.0,0.0,1.0
Ansbach ,4180000188,7004459,49.3,10.583333,4.0,1.0,1.0
Apolda ,4180000192,1036356,51.016667,11.5,2.0,0.0,1.0
Arendsee ,4180000199,1036357,52.6667,12,0.0,1.0,0.0
Aresing ,4180000200,1038226,48.533333,11.3,1.0,0.0,1.0
Arneburg ,4180000203,1036358,52.666667,12,1.0,0.0,1.0
Arnsberg ,4180000206,7004440,51.383333,8.083333,1.0,0.0,1.0
Arnstadt ,4180000210,7012792,50.833333,10.95,1.0,0.0,1.0
Arolsen ,4180000213,7005945,51.366667,9.016667,1.0,0.0,1.0
Aschaffenburg ,4180000223,7004322,49.973889,9.149167,1.0,0.0,1.0
Augsburg ,4180000256,7004324,48.366667,10.883333,67.0,68.0,0.0
Auma ,4180000261,1036369,50.7,11.933333,1.0,0.0,1.0
Aurich ,4180000264,1038265,53.466667,7.483333,1.0,0.0,1.0
Altona ,4180000267,7012310,53.55,9.933333,10.0,4.0,1.0
Baden-W¨¹rttemberg ,4180030000,7003692,47.95,9.9,2.0,1.0,1.0
Bavaria ,4180030001,7003669,48.5,11.5,4.0,1.0,1.0
Brandenburg ,4180030003,7000096,52.4167,12.5667,0.0,1.0,0.0
Bacharach ,4180030010,7005110,50.066667,7.766667,2.0,0.0,1.0
Bad Aibling ,4180030013,1038307,47.866667,12,1.0,2.0,0.0
Bad Bergzabern ,4180030015,7012391,49.11,7.99,1.0,0.0,1.0
Bad D¨¹rkheim ,4180030034,7012953,49.468611,8.166389,1.0,1.0,0.0
Bad Elster ,4180030039,1036385,50.283333,12.233333,0.0,1.0,0.0
Bad Ems ,4180030040,7006980,50.333333,7.716667,0.0,2.0,0.0
Baden ,4180030041,7013215,53,9.083333,2.0,1.0,1.0
Baden-Baden ,4180030042,7005172,48.75,8.25,0.0,11.0,0.0
Badenweiler ,4180030045,7012380,47.8,7.683333,1.0,2.0,0.0
Bad Freienwalde ,4180030050,1036387,52.783333,14.033333,1.0,0.0,1.0
Bad Godesberg ,4180030053,1038330,50.6833,7.15,1.0,1.0,0.0
Bad Homburg ,4180030062,7012368,50.216667,8.616667,1.0,0.0,1.0
Bad Honnef ,4180030063,1038339,50.633333,7.233333,0.0,1.0,0.0
Bad Kissingen ,4180030065,7012369,50.2,10.083333,1.0,0.0,1.0
Bad Kreuznach ,4180030073,7012371,49.833333,7.866667,0.0,1.0,0.0
Bad Lauchst_dt ,4180030077,7013225,51.383333,11.85,1.0,0.0,1.0
Bad Liebenwerda ,4180030081,1036397,51.516667,13.4,1.0,0.0,1.0
Bad Liebenzell ,4180030082,1038348,48.766667,8.733333,1.0,1.0,0.0
Bad Lippspringe ,4180030083,1038349,51.783333,8.816667,0.0,1.0,0.0
Bad Mergentheim ,4180030085,7005181,49.4925,9.773611,3.0,0.0,1.0
Bad Nauheim ,4180030090,7012373,50.366667,8.75,0.0,1.0,0.0
Bad Pyrmont ,4180030099,7005480,51.983333,9.25,0.0,1.0,0.0
Bad Reichenhall ,4180030102,7004671,47.733333,12.883333,0.0,2.0,0.0
Bad S_ckingen ,4180030107,7012940,47.55,7.95,2.0,0.0,1.0
Bad Schwalbach ,4180030116,7012959,50.133333,8.066667,0.0,1.0,0.0
Bad T_lz ,4180030128,7004694,47.766667,11.566667,0.0,1.0,0.0
Bad Waldsee ,4180030131,1038389,47.916667,9.766667,1.0,0.0,1.0
Bad Wiessee ,4180030133,1038391,47.716667,11.716667,0.0,1.0,0.0
Bad Wildungen ,4180030134,7005948,51.2,8.9667,0.0,1.0,0.0
Ballenstedt ,4180030152,1036412,51.716667,11.233333,0.0,1.0,0.0
Bamberg ,4180030154,7004325,49.866667,10.866667,14.0,8.0,1.0
Barbis ,4180030158,1038415,51.616667,10.433333,1.0,0.0,1.0
Barby ,4180030159,1036414,51.966667,11.883333,0.0,1.0,0.0
Bautzen ,4180030196,7012305,51.183333,14.433333,1.0,0.0,1.0
Bayreuth ,4180030199,7004326,49.45,11.5833,4.0,4.0,0.0
Bayrischzell ,4180030200,1038442,47.666667,12.016667,0.0,2.0,0.0
Beeskow ,4180030221,1036425,52.166667,14.25,1.0,0.0,1.0
Benediktbeuern ,4180030241,5001774,47.7,11.4,2.0,0.0,1.0
Bensheim ,4180030251,7013232,49.680278,8.616111,0.0,1.0,0.0
Berchtesgaden ,4180030257,7004327,47.633333,13,0.0,1.0,0.0
Berg ,4180030259,7012307,47.966667,11.35,1.0,0.0,1.0
Bergen ,4180030266,1136883,52.883333,10.966667,0.0,1.0,0.0
Bergisch Gladbach ,4180030278,7012390,50.983333,7.133333,1.0,0.0,1.0
Bergneustadt ,4180030280,7012392,51.033333,7.65,1.0,0.0,1.0
Berkheim ,4180030285,1038487,48.05,10.083333,1.0,0.0,1.0
Berlin ,4180030287,7003712,52.516667,13.4,165.0,242.0,0.0
Berne ,4180030294,1038491,53.1833,8.4833,1.0,2.0,0.0
Bernkastel-Kues ,4180030296,7012393,49.916667,7.066667,1.0,0.0,1.0
Bernried ,4180030297,1038494,47.866667,11.3,0.0,1.0,0.0
Bernstadt ,4180030301,1036452,51.05,14.85,1.0,0.0,1.0
Bersenbr¨¹ck ,4180030303,7005281,52.55,7.933333,1.0,0.0,1.0
Betzdorf ,4180030314,1038504,50.783333,7.883333,1.0,0.0,1.0
Beuron ,4180030317,7012395,48.05,8.966667,0.0,1.0,0.0
Biberach ,4180030322,7013234,48.333333,8.033333,3.0,2.0,1.0
Biberach an der Ri_ ,4180030323,7031763,48.1,9.8,2.0,1.0,1.0
Bielefeld ,4180030331,7005978,52.033333,8.533333,6.0,5.0,1.0
Bietigheim ,4180030336,1038522,48.916667,8.25,1.0,0.0,1.0
Bingen ,4180030348,7012309,49.966667,7.9,4.0,0.0,1.0
Birkenfeld ,4180030354,1136885,49.65,7.183333,1.0,0.0,1.0
Birkenwerder ,4180030356,1036462,52.683333,13.283333,0.0,1.0,0.0
Bitterfeld ,4180030375,1036466,51.616667,12.316667,1.0,0.0,1.0
Blaubeuren ,4180030387,7005173,48.4,9.783333,1.0,0.0,1.0
Bleckede ,4180030390,1038556,53.3,10.733333,1.0,0.0,1.0
Blieskastel ,4180030396,1038561,49.233333,7.25,1.0,0.0,1.0
