city,cityID,TGNID,latitude,longitude,birth,death,bir_sour
Alexandria ,1123000108,7001188,31.2,29.9,0.0,1.0,0.0
Kenya ,1300000000,1000169,1,38,0.0,1.0,0.0
Nairobi ,1300390003,7001116,-1.2833,36.8333,0.0,1.0,0.0
Casablanca ,1360060002,7000451,33.65,-7.5833,1.0,0.0,1.0
South Africa ,1547000000,1000193,-30,26,1.0,2.0,0.0
Cape Town ,1547060008,7000811,-33.9333,18.4667,0.0,1.0,0.0
Durban ,1547090049,7000801,-29.8833,31,0.0,1.0,0.0
Johannesburg ,1547270007,7000809,-26.1667,28.0333,0.0,1.0,0.0
Kokstad ,1547300050,1093255,-30.5333,29.4167,1.0,0.0,1.0
Louis Trichardt ,1547330035,1093324,-23.0167,29.7167,0.0,1.0,0.0
Port Elizabeth ,1547450045,7000861,-33.9667,25.6,1.0,0.0,1.0
Queenstown ,1547480000,1093541,-31.9,26.8833,1.0,0.0,1.0
Schweizer-Reneke ,1547540017,1093611,-27.1833,25.3333,1.0,0.0,1.0
Valhalla ,1547630001,1093732,-25.8333,28.15,0.0,1.0,0.0
Beijing ,3062030302,7001758,39.9167,116.4333,0.0,1.0,0.0
Tbilisi ,3180570000,7012268,41.7167,44.8167,1.0,1.0,0.0
Telavi ,3180570001,1060221,41.9333,45.5,1.0,0.0,1.0
India ,3241000000,7000198,20,77,0.0,1.0,0.0
Bhagalpur ,3241030278,1074751,25.2333,86.9833,1.0,0.0,1.0
Calcutta ,3241060002,7030776,22.5,88.3333,2.0,0.0,1.0
Sukabumi ,3242540173,1078620,-6.9167,106.8333,1.0,0.0,1.0
Israel ,3244000000,1000119,31.5,34.75,0.0,2.0,0.0
Tel Aviv district ,3244570000,1000939,32.0833,34.8,0.0,1.0,0.0
Tel Aviv-Jaffa ,3244570005,7001369,32.0833,34.7667,0.0,1.0,0.0
Teverya ,3244570016,7017529,32.8,35.5333,1.0,0.0,1.0
Amman governorate ,3270000001,1002055,31.5833,36.5,0.0,1.0,0.0
Akita prefecture ,3271000145,7000272,39.75,140.0833,1.0,0.0,1.0
Kyoto ,3271300435,7004603,35,135.75,2.0,1.0,1.0
Nara ,3271390105,7004739,34.6833,135.8333,0.0,1.0,0.0
Nara prefecture ,3271390208,1001012,34.5,136,0.0,1.0,0.0
Osaka ,3271420147,1081126,35.95,137.2833,1.0,0.0,1.0
Tokyo ,3271570170,7004472,35.75,139.5,1.0,1.0,0.0
Kazakhstan ,3302000000,7014786,48,68,0.0,1.0,0.0
Ulaanbaatar ,3363600002,7000872,47.9,106.8667,1.0,0.0,1.0
Kathmandu ,3392300004,1083294,27.7,85.3167,0.0,1.0,0.0
Lahore ,3450330001,7001560,31.5667,74.3667,0.0,1.0,0.0
Russia ,3510000000,7002435,60,47,3.0,0.0,1.0
Droskovo ,3510090139,1053725,52.4833,37.0333,1.0,0.0,1.0
Irbit ,3510240099,1054400,57.7333,63.0333,0.0,1.0,0.0
Ivanovskoye ,3510240158,1137524,56.4,37.1333,1.0,0.0,1.0
Moscow ,3510360392,7012974,55.75,37.7,3.0,10.0,0.0
Petrovsk ,3510450202,1058371,52.3333,45.4,1.0,0.0,1.0
Riga ,3510510089,7010267,56.6667,106.1667,1.0,0.0,1.0
Saint Petersburg ,3510540053,7010273,59.8833,30.25,10.0,5.0,1.0
Smolensk ,3510540484,7010288,54.8167,32.0667,1.0,0.0,1.0
Tula ,3510570354,7010310,54.1833,37.6333,2.0,0.0,1.0
Zaraysk ,3510750060,1061541,54.75,38.9,1.0,1.0,0.0
Uusikirkko ,3510750247,7029520,60.316,29.266,0.0,1.0,0.0
Sri Lanka ,3542000000,1000110,7,81,0.0,1.0,0.0
South Korea ,3544000000,7000299,37,127.5,1.0,0.0,1.0
Kangn_ng ,3544300012,1082264,37.8,127.8667,1.0,0.0,1.0
Seoul ,3544540030,7002223,37.5333,127,0.0,1.0,0.0
Bangkok ,3571030088,7000983,13.7333,100.5,1.0,0.0,1.0
Istanbul ,3573240047,7002473,41.0333,28.95,1.0,0.0,1.0
Pomerania ,4000450004,7013079,54,16,1.0,0.0,1.0
Silesia ,4000540003,7007552,50.864519,16.82592,2.0,0.0,1.0
Austria ,4002000000,1000062,47.3333,13.3333,1.0,1.0,0.0
Bad Radkersburg ,4002030015,1025435,46.6833,15.9833,1.0,0.0,1.0
Frohnleiten ,4002150032,1025552,47.2833,15.3333,0.0,1.0,0.0
Graz ,4002180039,7003097,47.0833,15.3667,3.0,1.0,1.0
Hall in Tirol ,4002210012,1025641,47.2833,11.5167,0.0,1.0,0.0
Innsbruck ,4002240006,7003249,47.2667,11.4,2.0,2.0,0.0
Liezen ,4002330041,1025791,47.5833,14.25,0.0,1.0,0.0
Mank ,4002360003,1025820,48.1333,15.35,1.0,0.0,1.0
Nieder_sterreich ,4002390000,7003025,48.3333,15.75,0.0,1.0,0.0
Neustift ,4002390021,7012619,47.1167,11.3167,1.0,0.0,1.0
Sch_rding ,4002540058,1026055,48.4667,13.45,0.0,1.0,0.0
V_cklabruck ,4002630010,7003279,48.0167,13.6667,1.0,0.0,1.0
Vienna ,4002630021,7003321,48.2167,16.3667,31.0,15.0,1.0
Wels ,4002660029,7012348,48.1667,14.0333,0.0,2.0,0.0
Vitebsk ,4030630017,7010317,55.1667,30.2333,1.0,0.0,1.0
Antwerp ,4031000019,7007856,51.213886,4.401514,4.0,3.0,1.0
Berchem ,4031030022,1136644,51.196044,4.423119,1.0,0.0,1.0
Bruges ,4031030066,7007867,51.210933,3.225971,0.0,1.0,0.0
Brussels ,4031030068,7007868,50.833333,4.333333,5.0,9.0,0.0
Ghent ,4031180010,7007887,51.05,3.716667,4.0,3.0,1.0
Ixelles ,4031240003,1026511,50.833333,4.366667,1.0,0.0,1.0
La Louvi¨¨re ,4031330004,1026545,50.466667,4.183333,1.0,0.0,1.0
Mons ,4031360041,7007961,50.3,3.9667,1.0,0.0,1.0
Ostend ,4031420006,7007967,51.223392,2.911854,1.0,0.0,1.0
Schaerbeek ,4031540019,1026718,50.85,4.383333,1.0,1.0,0.0
Tournai ,4031570018,7008002,50.60715,3.389321,1.0,0.0,1.0
Sofia ,4033540012,7009977,42.6667,23.3,0.0,1.0,0.0
Veliko T_rnovo ,4033630002,7010645,43.0667,25.65,1.0,0.0,1.0
Brno ,4060030039,7011840,49.2167,16.6667,0.0,1.0,0.0
Ceske Budejovice ,4060060017,7011338,48.9667,14.4833,1.0,0.0,1.0
Chrudim ,4060060032,1027136,49.95,15.7833,1.0,0.0,1.0
Kojet¨ªn ,4060300022,1027281,49.3667,17.3333,1.0,1.0,0.0
Kol¨ªn ,4060300024,7011624,50.0333,15.1833,1.0,0.0,1.0
Kyjov ,4060300061,1027313,49,17.1667,1.0,1.0,0.0
Libochovice ,4060330014,1027333,50.4,14.0333,1.0,0.0,1.0
Mikulov ,4060360014,7011708,48.8,16.6333,1.0,0.0,1.0
Olomouc ,4060420001,7011841,49.6333,17.25,1.0,0.0,1.0
Opava ,4060420004,7011718,49.9667,17.9167,1.0,0.0,1.0
Pelh_imov ,4060450007,1027461,49.4333,15.2167,1.0,0.0,1.0
Prague ,4060450028,7006464,50.1,14.4333,12.0,15.0,0.0
Prost¨§jov ,4060450039,1027486,49.4667,17.1167,1.0,0.0,1.0
Tel_ ,4060570004,1027585,49.2,15.4667,0.0,1.0,0.0
_st¨ª nad Labem ,4060600016,1027001,50.6833,14,1.0,0.0,1.0
_st¨ª nad Orlic¨ª ,4060600017,1027002,49.9667,16.4,1.0,0.0,1.0
Denmark ,4090000000,1000066,56,10,1.0,2.0,0.0
Copenhagen ,4090060002,7003474,55.7167,12.5667,10.0,8.0,1.0
Fredericksberg ,4090150024,7003476,55.7,12.4833,1.0,2.0,0.0
Frederiksberg ,4090150025,1027809,55.4167,11.5667,2.0,0.0,1.0
Gren_ ,4090180034,7003551,56.4167,10.8833,1.0,0.0,1.0
Hellerup ,4090210029,4004927,55.676279,12.569195,0.0,2.0,0.0
Horsens ,4090210077,7003403,55.8833,9.8833,2.0,0.0,1.0
Ribe ,4090510013,7003433,55.3333,8.7833,1.0,0.0,1.0
Roskilde ,4090510031,7003586,55.65,12.1167,1.0,0.0,1.0
Ry ,4090510036,1028091,56.1,9.7667,0.0,1.0,0.0
Skagen ,4090540021,7003593,57.7333,10.6167,1.0,1.0,0.0
Sor_ ,4090540059,7003597,55.4333,11.5667,1.0,1.0,0.0
T_rb_k ,4090570002,1028171,55.6,12.65,0.0,1.0,0.0
Vejle county ,4090630000,7003399,55.75,9.5,0.0,1.0,0.0
Estonia ,4120000000,7006540,59,26,1.0,0.0,1.0
Tallinn ,4120570001,7006629,59.433,24.728,1.0,1.0,0.0
France ,4151000000,1000070,46,2,2.0,2.0,0.0
Alen_on ,4151000083,7008621,48.4167,.0833,1.0,0.0,1.0
Antibes ,4151000186,7012323,43.5833,7.1167,0.0,1.0,0.0
Argenteuil ,4151000228,7008019,48.95,2.25,1.0,0.0,1.0
Avignon ,4151000374,7008799,43.9333,4.8,3.0,0.0,1.0
Bayonne ,4151030087,7008192,43.5,-1.4667,0.0,1.0,0.0
Bergerac ,4151030186,7008948,44.8333,.4833,1.0,0.0,1.0
Bessines-sur-Gartempe ,4151030214,4001468,46.1167,1.3667,1.0,0.0,1.0
Bordeaux ,4151030351,7008161,44.8333,-.5667,1.0,0.0,1.0
Boulogne ,4151030378,7016632,50.7167,1.6167,0.0,1.0,0.0
Bourges ,4151030399,7017415,47.0833,2.3833,1.0,0.0,1.0
Brest ,4151030468,7008258,48.3833,-4.5,1.0,0.0,1.0
Calais ,4151060018,7009002,50.95,1.8667,0.0,1.0,0.0
Cand¨¦ ,4151060038,1032407,47.5667,-1.0333,1.0,0.0,1.0
Chamb¨¦ry ,4151060189,7008766,45.5667,5.9167,1.0,0.0,1.0
Chamonix-Mont-Blanc ,4151060200,1032562,45.9167,6.8667,0.0,1.0,0.0
Chartres ,4151060276,7008267,48.45,1.5,1.0,0.0,1.0
Cherbourg ,4151060384,7008211,49.6333,-1.6167,1.0,0.0,1.0
Clermont ,4151060445,1032695,49.3833,2.4333,0.0,1.0,0.0
Compi¨¨gne ,4151060500,7010575,49.4167,2.8333,0.0,1.0,0.0
Dieppe ,4151090057,7008922,49.9167,1.0833,0.0,1.0,0.0
Dijon ,4151090064,7008224,47.3333,5.0333,1.0,0.0,1.0
Fontainebleau ,4151150107,7008005,48.4,2.7,2.0,0.0,1.0
Fontenay-aux-Roses ,4151150120,1033144,48.7833,2.3,0.0,1.0,0.0
Grasse ,4151180157,7008767,43.6667,6.9333,0.0,1.0,0.0
Grenoble ,4151180169,7008759,45.1833,5.7167,2.0,0.0,1.0
Haute-Savoie ,4151210117,7002946,46,6.3333,0.0,1.0,0.0
Lorraine ,4151330002,7002888,49,6,1.0,0.0,1.0
La Rochelle ,4151330179,7009264,46.1667,-1.1667,0.0,1.0,0.0
Le Havre ,4151330274,7008927,49.5,.1,1.0,0.0,1.0
Limoges ,4151330452,7008410,45.8333,1.25,1.0,0.0,1.0
Lun¨¦ville ,4151330578,7009313,48.5833,6.5,1.0,0.0,1.0
Lyon ,4151330592,7008772,45.7667,4.8333,7.0,1.0,1.0
Loire Valley ,4151330596,4011586,47.168465,-1.273689,0.0,1.0,0.0
Le Mesnil-Th¨¦ribus ,4151330597,7029464,49.3,1.983,0.0,1.0,0.0
Menton ,4151360241,7009337,43.7833,7.5,0.0,1.0,0.0
Metz ,4151360282,7008418,49.1167,6.1833,1.0,0.0,1.0
Meudon ,4151360284,7009340,48.8167,2.25,0.0,1.0,0.0
Mirecourt ,4151360322,1034395,48.3,6.1333,1.0,0.0,1.0
Mulhouse ,4151360584,7012333,47.75,7.35,1.0,0.0,1.0
Neuilly-sur-Seine ,4151390048,7009402,48.8833,2.2667,0.0,2.0,0.0
Nevers ,4151390065,7008240,47,3.15,0.0,1.0,0.0
Nice ,4151390067,7008773,43.7,7.2667,0.0,5.0,0.0
Nohant-Vicq ,4151390093,7016434,46.6333,1.9667,0.0,1.0,0.0
Thomery ,4151390141,7029595,48.4,2.796,0.0,1.0,0.0
Oise ,4151420096,7002977,49.1,2.75,1.0,0.0,1.0
Paimb_uf ,4151450006,1034792,47.2833,-2.0167,1.0,0.0,1.0
Paris ,4151450026,7008038,48.8667,2.3333,59.0,108.0,0.0
Poligny ,4151450165,7009435,46.8333,5.7,1.0,0.0,1.0
Quimper ,4151480019,7008262,48,-4.1,0.0,1.0,0.0
Rixheim ,4151510086,7009471,47.75,7.4167,1.0,0.0,1.0
Romenay ,4151510128,1035130,46.5,5.05,1.0,0.0,1.0
Saint-Denis ,4151540116,7009706,48.95,2.3833,0.0,1.0,0.0
Sainte-Adresse ,4151540128,1035560,49.5167,.0833,0.0,1.0,0.0
Saint-Malo ,4151540335,7009645,48.65,-2,1.0,0.0,1.0
Saint-Sauveur-en-Puisaye ,4151540485,1035526,47.6333,3.2,1.0,0.0,1.0
Sassenage ,4151540590,1035636,45.2167,5.65,0.0,1.0,0.0
Sceaux ,4151540628,7007998,48.7833,2.3,0.0,1.0,0.0
S¨¨vres ,4151540700,7007999,48.8167,2.2167,0.0,1.0,0.0
Strasbourg ,4151540794,7012346,48.5833,7.75,1.0,0.0,1.0
Sucy-en-Brie ,4151540795,1035790,48.7667,2.5333,1.0,0.0,1.0
Tours ,4151570128,7008323,47.3833,.7,1.0,0.0,1.0
Versailles ,4151630142,7008070,48.8,2.1333,1.0,3.0,0.0
V¨¦theuil ,4151630158,7008041,49.0667,1.7,0.0,1.0,0.0
Bur¨¦ ,4151750005,7029394,48.516,.416,0.0,1.0,0.0
Charentay ,4151750008,7029521,46.083,4.683,0.0,1.0,0.0
Helsinki ,4152210016,7009880,60.1333,25,3.0,5.0,0.0
Pori ,4152450026,7009893,61.4667,21.75,1.0,0.0,1.0
Tampere ,4152570003,7009960,61.49781,23.76226,1.0,0.0,1.0
Vaasa ,4152630003,7009964,63.1,21.6,1.0,0.0,1.0
Germany ,4180000000,7000084,51.5,10.5,4.0,2.0,1.0
Ansbach ,4180000188,7004459,49.3,10.583333,1.0,0.0,1.0
Augsburg ,4180000256,7004324,48.366667,10.883333,1.0,0.0,1.0
Ballenstedt ,4180030152,1036412,51.716667,11.233333,1.0,2.0,0.0
Bamberg ,4180030154,7004325,49.866667,10.866667,1.0,0.0,1.0
Benediktbeuern ,4180030241,5001774,47.7,11.4,1.0,0.0,1.0
Berlin ,4180030287,7003712,52.516667,13.4,11.0,6.0,1.0
Blankenburg ,4180030378,7012401,51.783333,10.95,0.0,1.0,0.0
Bremen ,4180030543,7005286,53.083333,8.8,1.0,1.0,0.0
Chemnitz ,4180060023,7005951,50.833333,12.916667,1.0,0.0,1.0
Coburg ,4180060035,7004330,50.25,10.966667,1.0,0.0,1.0
Cologne ,4180060061,7004446,50.933333,6.95,5.0,3.0,1.0
Darmstadt ,4180090037,7004428,49.870556,8.649444,2.0,2.0,0.0
Dresden ,4180090203,7004455,51.05,13.75,2.0,9.0,0.0
Dusseldorf ,4180090230,7004443,51.216667,6.766667,2.0,2.0,0.0
Erfurt ,4180120177,7024031,50.983333,11.033333,1.0,0.0,1.0
Erlangen ,4180120189,7004332,49.589722,11.003889,1.0,0.0,1.0
Essen ,4180120219,7004905,51.45,6.95,0.0,1.0,0.0
Frankfurt am Main ,4180150093,7005293,50.116667,8.683333,4.0,5.0,0.0
Frankfurt an der Oder ,4180150094,7005972,52.35,14.55,1.0,0.0,1.0
Freiburg im Breisgau ,4180150114,7004423,48,7.85,0.0,1.0,0.0
Garmisch-Partenkirchen ,4180180025,7004701,47.5,11.1,0.0,1.0,0.0
Gera ,4180180083,7012815,50.866667,12.083333,0.0,1.0,0.0
Goch ,4180180165,1039284,51.666667,6.166667,1.0,0.0,1.0
Gotha ,4180180211,7005938,50.95,10.716667,1.0,0.0,1.0
G_ttingen ,4180180217,7005246,51.533333,9.933333,1.0,0.0,1.0
Gummersbach ,4180180396,1039376,51.033333,7.55,1.0,0.0,1.0
Hagen ,4180210017,7005154,51.35,7.466667,1.0,0.0,1.0
Hamburg ,4180210056,7005289,53.55,10,4.0,4.0,0.0
Hanover ,4180210070,7013260,52.366667,9.716667,2.0,0.0,1.0
Jena ,4180270013,7005973,50.933333,11.583333,1.0,0.0,1.0
Karlsruhe ,4180300045,7004424,49.004722,8.385833,1.0,0.0,1.0
Kiel ,4180300108,7004457,54.333333,10.133333,1.0,0.0,1.0
Kirchberg ,4180300119,1037067,50.616667,12.533333,0.0,1.0,0.0
Cleves ,4180300184,7012313,51.783333,6.15,0.0,1.0,0.0
Leipzig ,4180330144,7012329,51.3333,12.4167,3.0,4.0,0.0
Lubeck ,4180330314,7012327,53.866667,10.7,1.0,0.0,1.0
L¨¹denscheid ,4180330325,1039976,51.216667,7.616667,0.0,1.0,0.0
Ludwigsburg ,4180330329,7012585,48.9,9.183333,0.0,1.0,0.0
L¨¹tzen ,4180330357,7012328,51.25,12.133333,0.0,1.0,0.0
Mainz ,4180360021,7004449,50,8.271111,0.0,1.0,0.0
Mannheim ,4180360036,7005179,49.488333,8.464722,0.0,2.0,0.0
Marburg ,4180360043,7012330,50.816667,8.766667,1.0,0.0,1.0
Meissen ,4180360132,7012844,51.1667,13.4167,0.0,1.0,0.0
M_lln ,4180360238,1040184,53.633333,10.683333,0.0,1.0,0.0
Munich ,4180360300,7004333,48.15,11.583333,3.0,8.0,0.0
Murnau ,4180360323,7004704,47.683333,11.2,0.0,1.0,0.0
Nuremberg ,4180390285,7004334,49.447778,11.068333,8.0,5.0,1.0
Oberkirchen ,4180420025,1040565,51.166667,8.366667,1.0,0.0,1.0
Oldenburg ,4180420127,1003813,53.1333,8.2167,1.0,0.0,1.0
Ober-Kassel ,4180420225,1005250,51.233333,6.766667,0.0,1.0,0.0
Paderborn ,4180450001,7005101,51.716667,8.766667,1.0,0.0,1.0
Pforzheim ,4180450075,7012653,48.883333,8.7,1.0,0.0,1.0
Pirna ,4180450090,7012339,50.966667,13.933333,2.0,0.0,1.0
Potsdam ,4180450142,7004463,52.4,13.066667,1.0,0.0,1.0
Saarland ,4180540000,7003684,49.3333,7,1.0,0.0,1.0
Schmelz ,4180540171,1041120,49.433333,6.85,0.0,1.0,0.0
Schorndorf ,4180540247,1041140,48.8,9.533333,1.0,0.0,1.0
Schweinfurt ,4180540310,7004336,50.05,10.233333,1.0,0.0,1.0
Starnberg ,4180540506,7004712,48,11.35,0.0,2.0,0.0
Stockheim ,4180540559,1041332,50.333333,9.016667,0.0,1.0,0.0
Stuttgart ,4180540614,7004425,48.766667,9.183333,4.0,1.0,1.0
Trier ,4180570142,7004447,49.75,6.633333,1.0,0.0,1.0
Waiblingen ,4180660020,7012751,48.833333,9.3,1.0,0.0,1.0
Weimar ,4180660161,1041715,51.366667,9.4,1.0,2.0,0.0
Wiesbaden ,4180660319,7004432,50.083333,8.25,1.0,0.0,1.0
Worpswede ,4180660439,7005307,53.216667,8.933333,0.0,1.0,0.0
Wuppertal ,4180660462,7004943,51.266667,7.183333,1.0,0.0,1.0
W¨¹rzburg ,4180660468,7004335,49.787778,9.936111,1.0,0.0,1.0
Athens ,4181000086,7001393,37.983333,23.733333,2.0,1.0,1.0
Corfu ,4181060006,7010883,39.62,19.919722,1.0,0.0,1.0
Thessalon¨ªki ,4181570013,7011182,40.640278,22.943889,1.0,0.0,1.0
Budapest ,4210030029,7006280,47.5,19.05,6.0,5.0,1.0
Borota ,4210030031,7029486,46.263,19.22,1.0,0.0,1.0
Kiskunf¨¦legyh¨¢za ,4210300017,1042377,46.7,19.8667,1.0,0.0,1.0
P¨¦cs ,4210450007,7010506,46.0667,18.25,0.0,1.0,0.0
Republic of Ireland ,4240000000,1000078,53,-8,2.0,2.0,0.0
Cork ,4240060079,7007168,51.9,-8.4667,1.0,0.0,1.0
County Cork ,4240060093,7003497,51.9667,-8.5833,0.0,1.0,0.0
Dublin ,4240090025,7001306,53.3333,-6.25,8.0,11.0,0.0
D¨²n Laoghaire ,4240090036,7006878,53.2833,-6.1333,1.0,0.0,1.0
Dublin borough ,4240090046,7001304,53.3333,-6.25,1.0,1.0,0.0
Enniscorthy ,4240120006,1042794,52.5,-6.5667,1.0,0.0,1.0
Lucan ,4240330022,1042912,53.3667,-6.45,0.0,1.0,0.0
Manorhamilton ,4240360009,1042923,54.3,-8.1667,1.0,0.0,1.0
Thomastown ,4240570005,1043029,52.5167,-7.1333,1.0,1.0,0.0
Neskaupstadhur ,4241390002,1042543,65.1667,-13.7167,1.0,0.0,1.0
Reykjav¨ªk ,4241510002,7006270,64.15,-21.9667,0.0,1.0,0.0
Seydhisfj_rdhur ,4241540008,1042549,65.2667,-14.0333,1.0,0.0,1.0
Vestmannaeyjar ,4241630004,7006266,63.4167,-20.25,1.0,0.0,1.0
Italy ,4243000000,1000080,42.8333,12.8333,0.0,2.0,0.0
Bologna ,4243030226,7004847,44.483333,11.333333,3.0,2.0,1.0
Carpi ,4243060274,7004950,44.783333,10.883333,1.0,0.0,1.0
Castellammare di Stabia ,4243060410,7015639,40.7,14.483333,0.0,1.0,0.0
Cava de' Tirreni ,4243060531,7004573,40.7,14.7,1.0,0.0,1.0
Cremona ,4243060945,7005868,45.116667,10.033333,2.0,1.0,1.0
Ferrara ,4243150055,7004264,44.833333,11.583333,1.0,0.0,1.0
Fiesole ,4243150070,7006141,43.8,11.283333,0.0,1.0,0.0
Florence ,4243150091,7000457,43.766667,11.25,8.0,9.0,0.0
Forio ,4243150146,4003995,40.733333,13.85,0.0,1.0,0.0
Forno ,4243150162,1044675,46.35,11.6167,0.0,1.0,0.0
Genoa ,4243180088,7008546,44.416667,8.95,0.0,1.0,0.0
Gubbio ,4243180243,7005048,43.35,12.583333,1.0,0.0,1.0
La Spezia ,4243330054,7005362,44.116667,9.833333,1.0,0.0,1.0
Lodi ,4243330174,7006011,45.316667,9.5,0.0,1.0,0.0
Mantua ,4243360075,7005879,45.15,10.8,0.0,1.0,0.0
Milan ,4243360266,7005903,45.466667,9.2,2.0,2.0,0.0
Modena ,4243360307,7009565,44.666667,10.916667,0.0,1.0,0.0
Naples ,4243390002,7004474,40.833333,14.25,2.0,1.0,1.0
Palermo ,4243450044,7003928,38.116667,13.366667,0.0,1.0,0.0
Parma ,4243450082,7004942,44.8,10.333333,1.0,0.0,1.0
Perosa Argentina ,4243450137,1045926,44.966667,7.166667,1.0,0.0,1.0
Perugia ,4243450142,7000526,43.133333,12.366667,0.0,1.0,0.0
Piacenza ,4243450174,7004939,45.016667,9.666667,1.0,1.0,0.0
Piove di Sacco ,4243450260,7003082,45.2975,12.042778,1.0,0.0,1.0
Rome ,4243510165,7000874,41.9,12.483333,11.0,14.0,0.0
Sacile ,4243540007,7005537,45.955278,12.501944,1.0,0.0,1.0
San Remo ,4243540268,7005354,43.816667,7.766667,0.0,2.0,0.0
Turin ,4243570114,7005688,45.05,7.666667,3.0,2.0,1.0
Trieste ,4243570218,7005539,45.648611,13.78,2.0,0.0,1.0
Udine ,4243600003,7005139,46.061944,13.242222,2.0,0.0,1.0
Venice ,4243630105,7018159,45.438611,12.326667,3.0,6.0,0.0
Jersey island ,4271270000,7005254,49.21283,-2.13317,0.0,1.0,0.0
Liep¨¡ja ,4330330007,7006474,56.5167,21.0167,1.0,0.0,1.0
R¨©ga ,4330510006,7006484,56.8833,24.1333,1.0,0.0,1.0
Kaunas ,4332300012,7006538,54.8667,23.9167,2.0,0.0,1.0
Chi_in_u ,4363060018,7010335,47,28.8333,1.0,0.0,1.0
Netherlands ,4390000000,7016845,52.5,5.75,0.0,1.0,0.0
Aardenburg ,4390000004,1047597,51.283333,3.45,0.0,1.0,0.0
Amersfoort ,4390000025,7006922,52.15,5.383333,1.0,0.0,1.0
Amsterdam ,4390000029,7006952,52.35,4.916667,13.0,9.0,1.0
Arnhem ,4390000037,7006876,51.983333,5.916667,0.0,1.0,0.0
Bergen ,4390030027,7007058,52.666667,4.7,0.0,1.0,0.0
Blaricum ,4390030045,1047658,52.283333,5.25,0.0,1.0,0.0
Delft ,4390090010,7006804,52,4.366667,1.0,0.0,1.0
Domburg ,4390090035,7006751,51.566667,3.5,0.0,1.0,0.0
Dordrecht ,4390090040,7006798,51.8,4.666667,2.0,1.0,1.0
Ede ,4390120003,1047745,52.033333,5.666667,0.0,1.0,0.0
Gouda ,4390180024,7006805,52.016667,4.7,1.0,0.0,1.0
Groningen ,4390180033,7006984,53.216667,6.55,2.0,2.0,0.0
Haarlem ,4390210003,7007048,52.366667,4.65,0.0,1.0,0.0
Hengelo ,4390210039,7006935,52.266667,6.8,1.0,1.0,0.0
Hoorn ,4390210067,7007056,52.65,5.066667,0.0,1.0,0.0
Hague, The ,4390210077,7006810,52.083333,4.3,5.0,6.0,0.0
Kampen ,4390300002,7006948,52.55,5.916667,1.0,1.0,0.0
Katwijk aan Zee ,4390300005,7006814,52.2,4.416667,1.0,0.0,1.0
Laren ,4390330005,7007044,52.25,5.233333,0.0,3.0,0.0
Leeuwarden ,4390330010,7007006,53.2,5.783333,1.0,1.0,0.0
Loenen ,4390330026,1047921,52.116667,6.016667,1.0,1.0,0.0
Oosterbeek ,4390420015,7006886,51.983333,5.85,0.0,1.0,0.0
Oosterhout ,4390420017,7006830,51.65,4.883333,1.0,0.0,1.0
Rotterdam ,4390510029,7006792,51.916667,4.5,1.0,1.0,0.0
Soest ,4390540050,7006928,52.183333,5.3,1.0,0.0,1.0
Tilburg ,4390570011,7006831,51.55,5.116667,1.0,0.0,1.0
Utrecht ,4390600014,7006926,52.083333,5.133333,2.0,1.0,1.0
Uitdam ,4390600015,7029488,52.416667,5.066667,0.0,1.0,0.0
Voorburg ,4390630035,7006811,52.066667,4.366667,0.0,1.0,0.0
Weesp ,4390660019,1048226,52.316667,5.033333,0.0,1.0,0.0
Zwolle ,4390750033,7007077,52.5,6.083333,2.0,0.0,1.0
Holmestrand ,4391210023,1048582,59.4833,10.3,1.0,0.0,1.0
Oslo ,4391420014,7009573,59.9333,10.75,1.0,3.0,0.0
Stavanger ,4391540047,7009594,58.9667,5.75,1.0,0.0,1.0
Trondheim ,4391570017,7009596,63.2,9.75,0.0,1.0,0.0
Bia_a ,4450030014,1048915,50.3833,17.65,1.0,0.0,1.0
Bia_ystok ,4450030023,7007545,53.15,23.1667,1.0,0.0,1.0
Gda¨½sk ,4450180004,7007660,54.3667,18.6833,1.0,1.0,0.0
Kalisz ,4450300003,7007681,53.3,15.9167,1.0,0.0,1.0
Cracow ,4450300083,7007652,50.05,19.9167,3.0,1.0,1.0
_¨®d_ ,4450330040,7007580,51.8167,19.4667,0.0,1.0,0.0
O_wie_cim ,4450420039,7013310,50.0333,19.2333,0.0,1.0,0.0
Sanok ,4450540004,1049445,49.5667,22.2,1.0,0.0,1.0
_winouj_cie ,4450540113,1048858,53.8833,14.2333,1.0,0.0,1.0
Trzcianka ,4450570018,1049543,53.05,16.4667,1.0,0.0,1.0
Warsaw ,4450660012,7007833,52.25,21,4.0,2.0,1.0
_bidos ,4451420000,4000244,39.35,-9.15,0.0,1.0,0.0
Porto ,4451450034,7010979,41.1667,-8.5833,0.0,1.0,0.0
Bucharest ,4511030048,7001804,44.4333,26.1,2.0,2.0,0.0
A Coru_a ,4540000007,7007904,43.366667,-8.383333,1.0,0.0,1.0
Aranjuez ,4540000130,7007284,40.033333,-3.6,0.0,1.0,0.0
Barcelona ,4540030022,7007426,41.398371,2.1741,2.0,1.0,1.0
Catalonia ,4540060004,7030216,41.6667,1.5,1.0,0.0,1.0
C¨¢diz ,4540060016,7007512,36.533611,-6.299444,1.0,0.0,1.0
Granada ,4540180026,7007703,37.183333,-3.6,1.0,1.0,0.0
Madrid ,4540360003,7010413,40.4,-3.683333,3.0,4.0,0.0
Marbella ,4540360027,1062213,36.516667,-4.883333,0.0,1.0,0.0
Oviedo ,4540420032,7008910,43.366667,-5.833333,1.0,0.0,1.0
Santander ,4540540096,7008639,43.4667,-4.15,1.0,0.0,1.0
Segovia ,4540540122,7008661,40.95,-4.116667,0.0,1.0,0.0
Seville ,4540540133,7008676,37.377222,-5.986944,3.0,1.0,1.0
Switzerland ,4542000000,7011731,47,8,0.0,1.0,0.0
Ascona ,4542000047,7007312,46.15,8.7833,0.0,1.0,0.0
Baden ,4542030004,7007314,47.4667,8.3167,1.0,0.0,1.0
Basel ,4542030012,7007269,47.55,7.6,1.0,2.0,0.0
Belp ,4542030024,1063936,46.9,7.5167,1.0,0.0,1.0
Bern ,4542030027,7007557,46.95,7.4333,1.0,2.0,0.0
Chur ,4542060025,7007276,46.8667,9.5333,1.0,0.0,1.0
Davos ,4542090003,7007342,46.8,9.8333,1.0,0.0,1.0
Fribourg ,4542150019,7007278,46.8333,7.1667,1.0,0.0,1.0
Geneva ,4542180010,7007279,46.2167,6.15,6.0,7.0,0.0
Lausanne ,4542330024,7007299,46.5333,6.65,1.0,1.0,0.0
Le Locle ,4542330032,1064180,47.0667,6.75,1.0,0.0,1.0
Leysin ,4542330048,1064196,46.35,7.0167,0.0,1.0,0.0
Luzern ,4542330066,7007280,47.05,8.2833,1.0,0.0,1.0
M_nnedorf ,4542360006,1064209,47.25,8.7167,0.0,1.0,0.0
Schaffhausen ,4542540046,7007462,47.7,8.6333,2.0,2.0,0.0
Zurich ,4542750015,7007302,47.3833,8.55,6.0,9.0,0.0
Ljubljana ,4543330015,7012986,46.0667,14.5,1.0,1.0,0.0
Nitra ,4544390001,7011715,48.3167,18.0667,1.0,0.0,1.0
G_vle ,4546180014,1062999,60.6833,17.1667,1.0,0.0,1.0
Kalmar ,4546300000,1000398,57.3333,16,1.0,0.0,1.0
Kopparberg ,4546300064,1063237,59.9167,14.9833,1.0,0.0,1.0
Mariestad ,4546360014,7009841,58.7333,13.8333,1.0,0.0,1.0
Norrk_ping ,4546390022,7009845,58.5833,16.1667,0.0,1.0,0.0
R_ttvik ,4546510017,1063479,60.9333,15.1667,0.0,1.0,0.0
Saltsj_baden ,4546540009,1063560,59.25,18.3333,0.0,1.0,0.0
Stockholm ,4546540138,7009861,59.3333,18.0833,12.0,9.0,1.0
Sundsvall ,4546540173,1063688,62.3667,17.3333,1.0,0.0,1.0
V_stervik ,4546630042,1063802,57.75,16.6667,0.0,1.0,0.0
Ukraine ,4600000000,7006660,49,32,1.0,0.0,1.0
_ernigov oblast ,4600060001,7012002,52.2167,32.75,1.0,0.0,1.0
Gradizhsk ,4600180025,1054146,49.2167,33.1167,1.0,0.0,1.0
Odessa ,4600420009,7011656,46.5,30.7667,1.0,0.0,1.0
Poltava ,4600450087,7011657,49.5833,34.5833,1.0,0.0,1.0
Staryy Sambor ,4600540151,1059796,49.4167,22.9833,1.0,0.0,1.0
Zhitomir ,4600750039,7012030,50.3,28.6667,1.0,0.0,1.0
Gavrontsy ,4600750077,7029487,49.716,34.593,1.0,0.0,1.0
Aberdeen ,4601000021,7009782,57.1667,-2.0667,2.0,0.0,1.0
Aberfoyle ,4601000027,1050352,56.1833,-4.3833,0.0,1.0,0.0
Altrincham ,4601000166,1028299,53.4,-2.35,1.0,0.0,1.0
Amesbury ,4601000185,7011224,51.1667,-1.7833,0.0,1.0,0.0
Ashridge Park ,4601000429,7011882,51.8,-.5667,0.0,1.0,0.0
Auchlunies ,4601000433,7029220,57.090482,-2.186516,1.0,0.0,1.0
Banchory ,4601030068,1050425,57.05,-2.5,0.0,1.0,0.0
Banstead ,4601030079,7011728,51.3167,-.2,1.0,0.0,1.0
Barrow ,4601030124,4001236,52.242149,0.58862,1.0,0.0,1.0
Bath ,4601030162,7011197,51.3833,-2.3667,1.0,1.0,0.0
Beaminster ,4601030190,7011291,50.8167,-2.75,0.0,1.0,0.0
Bearsden ,4601030193,1050435,55.9333,-4.3333,1.0,0.0,1.0
Berkshire ,4601030277,7008101,51.5167,-1.3333,0.0,2.0,0.0
Beverley ,4601030302,7010350,53.85,-.4333,0.0,1.0,0.0
Bexhill-on-Sea ,4601030306,7011493,50.8333,.4833,0.0,1.0,0.0
Birmingham ,4601030375,7010955,52.5,-1.8333,3.0,0.0,1.0
Blackheath ,4601030422,7011762,51.2,-.5167,0.0,1.0,0.0
Blandford Forum ,4601030441,7011286,50.85,-2.15,1.0,0.0,1.0
Blewbury ,4601030455,7026397,51.5667,-1.2333,0.0,1.0,0.0
Bodmin ,4601030485,7011337,50.4833,-4.7167,0.0,1.0,0.0
Bournemouth ,4601030557,7011274,50.7167,-1.9,3.0,1.0,1.0
Brighton ,4601030727,7011483,50.8333,-.1667,0.0,3.0,0.0
Brislington ,4601030746,4001885,51.4167,-2.55,1.0,0.0,1.0
Bristol ,4601030747,7011198,51.45,-2.5833,4.0,3.0,1.0
Brockham ,4601030777,1028652,51.2333,-.2833,0.0,1.0,0.0
Broughton ,4601030822,1050481,55.6167,-3.4167,1.0,0.0,1.0
Burnham ,4601030921,7026497,51.5333,-.6667,0.0,1.0,0.0
Burton on Trent ,4601030956,7011041,52.8,-1.6,1.0,0.0,1.0
Bermondsey ,4601030990,1004092,51.485,-.067,1.0,0.0,1.0
Buckingham Palace ,4601030993,1100393,51.5,-.1333,4.0,0.0,1.0
Bolton ,4601031000,1003566,53.5833,-2.4167,1.0,0.0,1.0
Balsall Heath ,4601031007,7029239,52.460892,-1.90244,1.0,0.0,1.0
Birmingham borough ,4601031011,7019028,52.5,-1.9167,2.0,0.0,1.0
Cambridge ,4601060052,7010874,52.2,.1167,0.0,2.0,0.0
Carlisle ,4601060090,7010281,54.9,-2.9167,0.0,1.0,0.0
Cheltenham ,4601060251,7011192,51.9,-2.0667,2.0,0.0,1.0
Chesham ,4601060261,1028814,51.7167,-.6333,1.0,0.0,1.0
Conwy ,4601060574,7008539,53.2833,-3.8333,0.0,1.0,0.0
Cookham ,4601060576,7011923,51.5667,-.7167,0.0,1.0,0.0
Copford ,4601060585,7026167,51.8667,.7833,0.0,1.0,0.0
Coventry ,4601060639,7011012,52.4167,-1.5,0.0,1.0,0.0
Crawford ,4601060681,1050554,55.4667,-3.6667,0.0,1.0,0.0
Crieff ,4601060706,1050559,56.3667,-3.8333,0.0,1.0,0.0
Crowborough ,4601060743,1028988,51.05,.15,0.0,1.0,0.0
Cumbernauld ,4601060789,1050576,55.95,-4,1.0,0.0,1.0
Carshalton ,4601060814,1004229,51.3667,-.1667,1.0,0.0,1.0
Chelsea ,4601060820,4012680,51.4833,-.15,1.0,0.0,1.0
Croydon ,4601060821,7026536,51.3833,-.0833,1.0,0.0,1.0
Cumbria ,4601060822,7008117,54.5167,-3.0167,0.0,1.0,0.0
Cheshire ,4601060826,7008114,53,-2.6833,1.0,0.0,1.0
Dartford ,4601090031,7011654,51.45,.2167,1.0,0.0,1.0
Denham ,4601090076,1029037,51.5667,-.5,0.0,1.0,0.0
Derby ,4601090089,7010684,52.9167,-1.5,2.0,0.0,1.0
Devizes ,4601090096,7011212,51.35,-1.9833,1.0,0.0,1.0
Dunfermline ,4601090253,7009554,56.0667,-3.4833,1.0,1.0,0.0
Down ,4601090313,7008698,54.4167,-5.6667,1.0,0.0,1.0
Devon ,4601090314,7012077,50.7333,-3.8167,1.0,1.0,0.0
Dulwich ,4601090318,7011784,51.45,-.0833,1.0,0.0,1.0
Dorset ,4601090320,7011961,50.7833,-2.3167,1.0,0.0,1.0
England ,4601120000,7002445,53,-2,5.0,2.0,1.0
Edinburgh ,4601120163,7009546,55.95,-3.2167,5.0,8.0,0.0
Enniskillen ,4601120247,1048356,54.35,-7.6333,0.0,1.0,0.0
Epsom ,4601120253,7011734,51.3333,-.2667,0.0,1.0,0.0
Eton ,4601120268,7011916,51.5,-.6,1.0,0.0,1.0
Exeter ,4601120288,7011953,50.7167,-3.5167,1.0,0.0,1.0
Essex ,4601120308,7008131,51.5833,.55,0.0,1.0,0.0
East Sussex ,4601120320,7008129,50.9167,.2167,0.0,1.0,0.0
Falmouth ,4601150015,7011359,50.1333,-5.0667,0.0,1.0,0.0
Ferndown ,4601150076,1029240,50.8,-1.9167,0.0,1.0,0.0
Folkestone ,4601150144,7011556,51.0833,1.1833,0.0,1.0,0.0
Ford ,4601150150,4003989,55.630638,-2.08555,0.0,1.0,0.0
Fowey ,4601150185,1029272,50.3333,-4.6333,0.0,1.0,0.0
Galashiels ,4601180005,7009533,55.6167,-2.8167,1.0,0.0,1.0
Gatehouse of Fleet ,4601180036,1050697,54.8833,-4.1833,1.0,1.0,0.0
Gateshead ,4601180038,7010026,54.9667,-1.6,0.0,1.0,0.0
Glasgow ,4601180085,7017283,55.8833,-4.25,8.0,4.0,1.0
Gravesend ,4601180189,7011614,51.45,.4,1.0,0.0,1.0
Gloucestershire ,4601180369,7008132,51.7833,-2.25,0.0,2.0,0.0
Great Britain ,4601180370,7008653,55.283096,-3.48906,1.0,1.0,0.0
Greater London ,4601180371,7008136,51.5,-.1667,3.0,0.0,1.0
Greenwich ,4601180372,7018915,51.4667,.0333,2.0,0.0,1.0
Greater Manchester ,4601180376,7026570,53.506546,-2.32009,1.0,0.0,1.0
Haslemere ,4601210157,7011745,51.0833,-.7,0.0,1.0,0.0
Hastings ,4601210165,7011443,50.85,.6,1.0,0.0,1.0
Haverfordwest ,4601210188,7008836,51.8167,-4.9667,1.0,0.0,1.0
Haworth ,4601210203,4004880,53.8333,-1.95,0.0,2.0,0.0
Helensburgh ,4601210249,7009097,56.0167,-4.7333,1.0,1.0,0.0
Hereford ,4601210300,7011091,52.0667,-2.7167,1.0,1.0,0.0
Higham ,4601210330,7027364,51.4167,.4667,0.0,1.0,0.0
Hindhead ,4601210385,1029569,51.1167,-.7333,0.0,1.0,0.0
Hitchin ,4601210402,7011886,51.95,-.2667,1.0,1.0,0.0
Holkham ,4601210422,7010763,52.9667,.8,1.0,0.0,1.0
Holt ,4601210448,1029593,52.9,1.0833,0.0,1.0,0.0
Honiton ,4601210465,7011311,50.8,-3.2167,0.0,1.0,0.0
Horsham ,4601210504,7011424,51.0667,-.35,1.0,0.0,1.0
Hoxton ,4601210546,7028245,51.533,-.067,1.0,0.0,1.0
Hunstanton ,4601210571,1029638,52.95,.5,1.0,0.0,1.0
Hurstbourne Tarrant ,4601210591,1029644,51.2667,-1.45,0.0,1.0,0.0
Hampton Court ,4601210606,1100405,51.4,-.3167,0.0,1.0,0.0
Hayling Island ,4601210607,7011396,50.804909,-0.979475,0.0,1.0,0.0
Hertfordshire ,4601210608,7008145,51.75,-.3333,1.0,1.0,0.0
Hampstead ,4601210611,7011827,51.55,-.1833,2.0,4.0,0.0
Holborn ,4601210618,1004682,51.5167,-.1167,0.0,1.0,0.0
Hampshire ,4601210620,7008139,51.0667,-1.25,0.0,1.0,0.0
Hereford and Worcester ,4601210629,7029494,52.15,-2.5,1.0,0.0,1.0
Inverness ,4601240070,7008997,57.45,-4.25,1.0,0.0,1.0
Islington ,4601240114,7011814,51.55,-.1,0.0,1.0,0.0
Isle of Wight ,4601240116,7011430,50.6333,-1.3333,0.0,1.0,0.0
Kingston-Upon-Hull ,4601300168,7010370,53.75,-.3333,1.0,0.0,1.0
Kirkcudbright ,4601300220,1050827,54.8333,-4.0333,0.0,1.0,0.0
Kent ,4601300281,7008153,51.2167,.65,0.0,4.0,0.0
Kingston upon Thames ,4601300282,7011969,51.4167,-.3,0.0,1.0,0.0
Kensington ,4601300283,4012698,51.5,-.1833,2.0,3.0,0.0
Leicester ,4601330131,7010948,52.6333,-1.1333,3.0,1.0,1.0
Limpsfield ,4601330195,1029834,51.2667,.0167,1.0,0.0,1.0
Liverpool ,4601330347,7010597,53.4167,-3,2.0,2.0,0.0
Llandudno ,4601330371,7008540,53.3167,-3.8167,1.0,0.0,1.0
Loddon ,4601330456,1029874,52.5333,1.4833,1.0,0.0,1.0
London ,4601330462,7011781,51.5,-.1667,80.0,111.0,0.0
Londonderry ,4601330464,7012110,55,-7.3167,1.0,0.0,1.0
Long Eaton ,4601330477,7025240,52.9,-1.25,1.0,0.0,1.0
Liverpool urban district ,4601330614,1003614,53.4167,-3,2.0,0.0,1.0
Lincolnshire ,4601330616,7008157,53.1667,-.3333,1.0,0.0,1.0
Lancashire ,4601330617,7008154,53.7,-2.6667,0.0,1.0,0.0
Lamorna ,4601330618,7029223,50.066132,-5.57017,0.0,1.0,0.0
Maidenhead ,4601360019,7011917,51.5333,-.7333,1.0,0.0,1.0
Manchester ,4601360039,7010477,53.5,-2.2167,2.0,0.0,1.0
Marlborough ,4601360093,1029982,51.4333,-1.7167,0.0,1.0,0.0
Melbourne ,4601360176,7010685,52.8167,-1.4167,1.0,0.0,1.0
Merthyr Tydfil ,4601360226,7008473,51.7667,-3.3833,1.0,0.0,1.0
Middlesbrough ,4601360259,7010051,54.5833,-1.2333,2.0,0.0,1.0
Middlesex ,4601360260,7012288,51.55615,-0.259685,1.0,0.0,1.0
Musbury ,4601360457,7025664,50.7333,-3.0167,0.0,1.0,0.0
Moray ,4601360473,5000451,57.5,-3.1667,1.0,0.0,1.0
Northern Ireland ,4601390000,7002448,54.6667,-6.75,0.0,1.0,0.0
Nazeing ,4601390023,7011862,51.7333,.05,1.0,0.0,1.0
Near Sawrey ,4601390024,4007722,54.352699,-2.97019,0.0,1.0,0.0
Newcastle upon Tyne ,4601390087,7012026,54.9833,-1.5833,1.0,1.0,0.0
Newry ,4601390136,1048398,54.1833,-6.3333,1.0,0.0,1.0
North Berwick ,4601390205,1050966,56.0667,-2.7167,1.0,0.0,1.0
Norwich ,4601390296,7012005,52.6333,1.3,4.0,3.0,1.0
Nottingham ,4601390298,7012006,52.9667,-1.1667,2.0,0.0,1.0
North Yorkshire ,4601390315,7008166,54.2167,-1.4167,1.0,0.0,1.0
Norfolk county ,4601390320,7008160,52.6667,1,1.0,0.0,1.0
Newlyn ,4601390321,7030112,50.1,-5.542,0.0,1.0,0.0
Oxford ,4601420127,7011931,51.7667,-1.25,3.0,1.0,1.0
Paignton ,4601450008,1030274,50.4333,-3.5667,0.0,1.0,0.0
Penzance ,4601450107,7011366,50.1167,-5.55,0.0,2.0,0.0
Peterhead ,4601450115,7009790,57.5,-1.7833,1.0,0.0,1.0
Petworth ,4601450123,7011411,50.9833,-.6,1.0,1.0,0.0
Plympton ,4601450176,1030334,50.3833,-4.05,1.0,0.0,1.0
Ramsgate ,4601510037,7011562,51.3333,1.4333,1.0,0.0,1.0
Reading ,4601510066,7011918,51.4667,-.9833,2.0,0.0,1.0
Redhill ,4601510079,1030419,51.2333,-.1833,0.0,1.0,0.0
Robertsbridge ,4601510167,1030445,50.9833,.4833,0.0,1.0,0.0
Romsey ,4601510197,7011394,50.9833,-1.5,0.0,1.0,0.0
Rotherfield Greys ,4601510213,4009454,51.533,-.965,0.0,1.0,0.0
Royal Tunbridge Wells ,4601510244,7011676,51.1333,.2667,0.0,1.0,0.0
Scotland ,4601540000,7002444,57,-4,2.0,0.0,1.0
Saffron Walden ,4601540005,7011869,52.0167,.25,1.0,0.0,1.0
Saint Andrews ,4601540009,7009562,56.3333,-2.7833,1.0,1.0,0.0
Saint Ives ,4601540032,7011362,50.2,-5.4833,0.0,3.0,0.0
Saint Leonards ,4601540038,7011471,50.85,.5667,0.0,2.0,0.0
Saint Neots ,4601540050,7010876,52.2333,-.2833,1.0,0.0,1.0
Salisbury ,4601540065,7011210,51.0833,-1.8,1.0,0.0,1.0
Sandringham ,4601540103,7010785,52.8333,.5167,1.0,0.0,1.0
Sandy ,4601540106,7030099,52.1333,-.3,1.0,0.0,1.0
Sheffield ,4601540263,7010692,53.3833,-1.5,1.0,0.0,1.0
Shorwell ,4601540340,7026983,50.6333,-1.35,0.0,1.0,0.0
Staines ,4601540608,7011737,51.4333,-.5,1.0,0.0,1.0
Steventon ,4601540705,7026936,51.2167,-1.2167,1.0,0.0,1.0
Strathaven ,4601540827,1051086,55.6667,-4.0667,1.0,0.0,1.0
Sundridge ,4601540887,1030798,51.2833,.1333,1.0,0.0,1.0
Sussex ,4601540893,7008133,50.944811,-0.044865,1.0,1.0,0.0
Swalecliffe ,4601540929,7027418,51.3667,1.0667,1.0,0.0,1.0
Surrey ,4601540987,7008175,51.2,-.05,3.0,1.0,1.0
Somerset ,4601540993,7012032,51.0833,-3,1.0,0.0,1.0
Suffolk ,4601540996,7008185,52.1667,1.0167,1.0,1.0,0.0
Streatham ,4601540997,1005668,51.4333,-.1167,1.0,1.0,0.0
South Yorkshire ,4601540998,7029505,53.55,-1.25,2.0,0.0,1.0
Tenterden ,4601570083,1030851,51.0833,.6833,0.0,1.0,0.0
Thornton, Bradford, West Yorkshire ,4601570146,1136756,53.784,-1.847,2.0,0.0,1.0
Tonbridge ,4601570258,7011616,51.2,.2667,1.0,0.0,1.0
Topsham ,4601570266,7011314,50.7,-3.45,0.0,1.0,0.0
Truro ,4601570320,7011328,50.2667,-5.05,1.0,0.0,1.0
Twickenham ,4601570377,7012095,51.45,-.35,1.0,2.0,0.0
Thorpe ,4601570380,7029228,54.035,-1.982,1.0,0.0,1.0
Tyne and Wear ,4601570382,7012033,-54.9167,-1.5833,2.0,0.0,1.0
Upper Norwood ,4601600071,7029209,51.415871,-0.09516,1.0,0.0,1.0
Virginia Water ,4601630005,1030962,51.4,-.5667,0.0,1.0,0.0
Walton ,4601660046,7025341,53.2167,-1.45,1.0,0.0,1.0
Watford ,4601660116,7011877,51.65,-.4,0.0,1.0,0.0
West Calder ,4601660196,1051143,55.85,-3.5833,1.0,0.0,1.0
Westerham ,4601660211,7011634,51.2667,.0833,0.0,1.0,0.0
Westgate-on-Sea ,4601660214,1031076,51.3833,1.35,1.0,0.0,1.0
Whitby ,4601660340,7010056,54.4833,-.6167,0.0,1.0,0.0
Wigan ,4601660402,7010384,53.55,-2.6333,1.0,0.0,1.0
Winchester ,4601660457,7011375,51.0667,-1.3167,0.0,1.0,0.0
Windsor ,4601660465,7011919,51.4833,-.6333,0.0,1.0,0.0
Woburn ,4601660528,7024777,51.9833,-.6333,2.0,1.0,1.0
Woking ,4601660530,1031182,51.3333,-.5667,1.0,0.0,1.0
Woodham Mortimer ,4601660560,1031201,51.7167,.6167,1.0,0.0,1.0
Wooler ,4601660581,1031211,55.55,-2.0167,1.0,1.0,0.0
Worcester ,4601660603,7015155,52.1833,-2.2167,1.0,0.0,1.0
Westminster ,4601660675,7018905,51.485,-.135,1.0,0.0,1.0
West Sussex ,4601660680,7008134,50.9167,-.5,0.0,1.0,0.0
Wakefield district ,4601660683,7019040,53.6667,-1.5,1.0,0.0,1.0
Warham ,4601660685,7029247,52.938271,0.898657,1.0,0.0,1.0
Yorkshire ,4601720032,7008171,53.93063,-1.207885,1.0,0.0,1.0
Barbados ,5031000000,7004770,13.1667,-59.5333,1.0,1.0,0.0
Canada ,5060000000,7005685,60,-96,1.0,1.0,0.0
Aurora ,5060000107,7013001,44,-79.5,1.0,0.0,1.0
Calgary ,5060060010,7013012,51.0833,-114.0833,0.0,1.0,0.0
Churchill ,5060060152,1013877,58.7667,-94.1667,0.0,1.0,0.0
Halifax ,5060210011,7013046,44.6333,-63.5833,0.0,1.0,0.0
Holman ,5060210104,1014378,70.7167,-117.7167,0.0,1.0,0.0
Macklin ,5060360004,1016009,52.3333,-109.9667,1.0,0.0,1.0
Montreal ,5060360191,7013051,45.5,-73.6,1.0,1.0,0.0
Northwest Territories ,5060390002,1000296,65,-118,1.0,0.0,1.0
Nova Scotia ,5060390003,7005802,45,-63,1.0,2.0,0.0
Territory of Nunavut ,5060390004,7024197,70,-90,1.0,0.0,1.0
Napanee ,5060390016,1014951,44.2,-77.0333,1.0,0.0,1.0
Ontario ,5060420000,7013154,50,-86,1.0,1.0,0.0
Ottawa ,5060420050,7013088,45.4167,-75.7167,1.0,1.0,0.0
Qu¨¦bec province ,5060480000,7005804,54,-72,1.0,1.0,0.0
Qu¨¦bec ,5060480003,7013095,46.8333,-71.25,1.0,0.0,1.0
Saint John's ,5060540140,7012999,47.55,-52.6667,1.0,0.0,1.0
Sidney ,5060540316,1013751,48.65,-123.4167,0.0,1.0,0.0
Stewiacke ,5060540423,1014515,45.15,-63.3667,1.0,0.0,1.0
Toronto ,5060570071,7013284,43.7,-79.4167,5.0,3.0,1.0
Vancouver ,5060630012,7013135,49.2167,-123.1,0.0,2.0,0.0
Victoria ,5060630039,7013136,48.4167,-123.3667,2.0,1.0,1.0
Westmount ,5060660082,1015814,45.5,-73.6,1.0,0.0,1.0
Havana ,5063330004,7006453,23.1167,-82.35,2.0,2.0,0.0
Yaguajay ,5063720000,1016450,22.3333,79.2667,1.0,0.0,1.0
Puerto Cort¨¦z ,5211450005,1016821,15.8333,-87.9167,1.0,0.0,1.0
Brown's Town ,5270030006,1016862,18.4667,-77.3667,0.0,1.0,0.0
Kingston ,5270300000,1016870,17.9667,-76.8,0.0,1.0,0.0
Saint Mary ,5270540015,7018569,37.71521,-76.694038,1.0,0.0,1.0
Chiapas ,5361060001,7005580,16.5,-92.5,0.0,1.0,0.0
Mexico City ,5361060135,7007227,19.434167,-99.138611,2.0,6.0,0.0
Guanajuato ,5361180040,1017522,21.016667,-101.25,0.0,1.0,0.0
Jalisco ,5361270000,7005586,20.3333,-103.6667,1.0,0.0,1.0
Granada ,5391180001,7005983,11.9667,-85.9833,1.0,1.0,0.0
United States ,5600000000,7012149,38,-98,2.0,2.0,0.0
Arkansas ,5600000004,7016172,35,-93,1.0,0.0,1.0
Alameda ,5600000956,7015159,37.75,-122.2333,1.0,0.0,1.0
Albany ,5600001030,7013266,42.65,-73.75,1.0,0.0,1.0
Alhambra ,5600001390,2009929,34.0833,-118.1167,0.0,1.0,0.0
Altadena ,5600001998,2009950,34.1833,-118.1167,0.0,1.0,0.0
Altmar ,5600002068,2067784,43.5,-76,1.0,0.0,1.0
Amherst ,5600002382,7013296,42.3667,-72.5167,0.0,1.0,0.0
Appleton ,5600003201,7013311,44.25,-88.4,1.0,0.0,1.0
Ardwick ,5600003551,2046016,38.9333,-76.8667,1.0,0.0,1.0
Ashby ,5600004190,2049329,42.6667,-71.8167,0.0,1.0,0.0
Aspen ,5600004447,7013327,39.1833,-106.8167,0.0,1.0,0.0
Atlanta ,5600004625,7013331,33.7333,-84.3833,1.0,0.0,1.0
Auburn ,5600004790,2061920,40.3833,-95.8333,0.0,1.0,0.0
Allegheny City ,5600005392,7029465,40.448977,-79.982372,1.0,0.0,1.0
Baltimore ,5600030670,7013352,39.2833,-76.6,2.0,1.0,1.0
Bangor ,5600030756,7013355,44.8,-68.7667,1.0,1.0,0.0
Barry ,5600031358,7016220,39.6833,-91.0333,1.0,0.0,1.0
Battersea ,5600031708,2151554,37.2167,-77.4167,0.0,1.0,0.0
Bellingham ,5600033421,7013375,48.75,-122.4833,1.0,1.0,0.0
Bennington ,5600033950,7013382,42.8667,-73.1833,0.0,1.0,0.0
Berkeley ,5600034194,7013386,37.8667,-122.2667,1.0,3.0,0.0
Biddeford ,5600034985,2044461,43.4833,-70.45,0.0,1.0,0.0
Binghamton ,5600035432,7013424,42.0833,-75.9167,1.0,0.0,1.0
Bismarck ,5600035680,7013429,46.8,-100.7833,1.0,0.0,1.0
Boston ,5600037778,7013445,42.35,-71.05,18.0,12.0,1.0
Boulder ,5600037871,7013446,40,-105.2667,0.0,1.0,0.0
Braceville ,5600038332,2078546,41.2167,-80.95,1.0,0.0,1.0
Brecksville ,5600038854,2078564,41.3167,-81.6167,1.0,0.0,1.0
Brewster ,5600039059,2068185,41.3833,-73.6167,0.0,1.0,0.0
Bronxville ,5600039933,7013456,40.9333,-73.8167,0.0,1.0,0.0
Brookline ,5600040061,7013458,42.3167,-71.1167,0.0,1.0,0.0
Brooklyn ,5600040067,2068222,42.3333,-75.1667,1.0,1.0,0.0
Brooklyn ,5600040071,2016663,41.7833,-71.95,1.0,0.0,1.0
Bucksport ,5600041205,2044527,44.5667,-68.7833,1.0,0.0,1.0
Buffalo ,5600041359,7013463,42.8833,-78.8667,3.0,0.0,1.0
Buffalo ,5600041384,2036121,37.7,-95.6833,1.0,0.0,1.0
Burlingame ,5600041890,7013465,37.5833,-122.35,0.0,1.0,0.0
Burlington ,5600041895,7013484,44.4667,-73.2,1.0,0.0,1.0
Brooklyn ,5600042617,7015822,40.6833,-73.9667,2.0,1.0,1.0
Bronx ,5600042618,7022658,40.85,-73.8667,2.0,1.0,1.0
California ,5600060000,7007157,37,-119,0.0,2.0,0.0
Connecticut ,5600060002,7007159,41.8333,-72.8333,0.0,1.0,0.0
Cambridge ,5600060615,7013527,42.3667,-71.1,1.0,0.0,1.0
Camden ,5600060654,7013531,39.9167,-75.1167,1.0,0.0,1.0
Cape Porpoise ,5600061623,2044575,43.3667,-70.4333,0.0,1.0,0.0
Carmel ,5600062004,2068351,41.4167,-73.6667,1.0,0.0,1.0
Carmel ,5600062016,7013551,36.55,-121.9167,0.0,3.0,0.0
Carson City ,5600062384,7013948,39.15,-119.75,0.0,1.0,0.0
Carteret ,5600062436,2064297,40.5667,-74.2167,1.0,0.0,1.0
Castleton ,5600062880,2109511,43.6,-73.1667,1.0,0.0,1.0
Cathedral City ,5600062997,2010633,33.7667,-116.45,0.0,1.0,0.0
Catskill ,5600063064,7013559,42.2167,-73.85,0.0,1.0,0.0
Cedarville ,5600063669,2026916,42.3667,-89.6167,1.0,0.0,1.0
Charleston ,5600064758,7013580,39.4833,-88.1667,1.0,0.0,1.0
Charleston ,5600064769,7013583,38.3333,-81.6167,1.0,0.0,1.0
Charleston ,5600064778,7013582,32.7667,-79.9167,2.0,2.0,0.0
Charlevoix ,5600064814,2051503,45.3167,-85.25,1.0,0.0,1.0
Chatham ,5600064972,2064339,40.7333,-74.3833,0.0,1.0,0.0
Chelsea ,5600065100,7015012,42.3833,-71.0333,1.0,0.0,1.0
Chicago ,5600065682,7013596,41.85,-87.65,14.0,6.0,1.0
Cincinnati ,5600066306,7013604,39.15,-84.45,4.0,1.0,1.0
Cleveland ,5600067250,7013608,41.4833,-81.6833,2.0,1.0,1.0
Colorado Springs ,5600068959,7013637,38.8333,-104.8167,1.0,0.0,1.0
Columbus ,5600069081,7013643,32.45,-84.9833,1.0,0.0,1.0
Concord ,5600069326,7013646,42.45,-71.3333,2.0,0.0,1.0
Cornish City ,5600070406,2063340,43.4667,-72.35,0.0,1.0,0.0
Covington ,5600071284,2079133,40.1167,-84.35,1.0,0.0,1.0
Cragsmoor ,5600071549,7013660,41.6667,-74.3833,0.0,1.0,0.0
Cresskill ,5600071965,2064493,40.9333,-73.95,0.0,1.0,0.0
Cape Cod ,5600073390,7013542,41.8333,-70,0.0,1.0,0.0
Delaware ,5600090000,7007239,39,-75.6667,0.0,1.0,0.0
Dallas ,5600090201,7013503,32.7833,-96.8,0.0,1.0,0.0
Davenport ,5600090685,7013507,41.5167,-90.5667,0.0,1.0,0.0
Dayton ,5600090980,7013511,39.75,-84.1833,1.0,0.0,1.0
Dedham ,5600091226,7013518,42.2333,-71.1667,1.0,0.0,1.0
Des Moines ,5600092306,7013546,41.6,-93.6,1.0,0.0,1.0
Detroit ,5600092349,7013547,42.3167,-83.0333,2.0,0.0,1.0
Dover ,5600093882,7013613,43.1833,-70.8667,1.0,0.0,1.0
East Greenwich ,5600120618,7013672,41.65,-71.45,0.0,1.0,0.0
East Hampton ,5600120640,7013673,40.95,-72.1833,0.0,2.0,0.0
Elmira ,5600123233,7014109,42.0833,-76.8,1.0,0.0,1.0
Erie ,5600124220,7017542,42.1167,-80.0833,1.0,0.0,1.0
Evanston ,5600124805,7014153,42.0333,-87.6833,1.0,1.0,0.0
Exeter ,5600125071,7014155,42.9667,-70.9333,1.0,0.0,1.0
Eagle Rock ,5600125131,7015303,34.1333,-118.2,0.0,1.0,0.0
Florida ,5600150000,7007240,28,-82,0.0,2.0,0.0
Fairmount ,5600150343,2031771,40.4,-85.65,1.0,0.0,1.0
Fall River ,5600150781,7014164,41.7,-71.15,1.0,0.0,1.0
Farmington ,5600151063,7016250,41.7167,-72.8167,0.0,1.0,0.0
Flint ,5600152727,7013765,43.00259,-83.7826,1.0,0.0,1.0
Flint ,5600152731,2079593,40.1167,-83,1.0,0.0,1.0
Fort Ann ,5600153704,2069242,43.4,-73.4833,0.0,1.0,0.0
Fort Dodge ,5600153785,7013781,42.4833,-94.1667,1.0,0.0,1.0
Framingham ,5600154681,7013936,42.2667,-71.4167,1.0,2.0,0.0
Galatia ,5600180125,2027955,37.8333,-88.6,1.0,0.0,1.0
Glendale ,5600182277,7014063,34.1333,-118.25,0.0,1.0,0.0
Gloucester ,5600182765,7014073,42.6,-70.65,0.0,4.0,0.0
Grafton ,5600183755,2118426,39.3333,-80.0167,1.0,0.0,1.0
Great Barrington ,5600184576,2049843,42.1833,-73.35,0.0,1.0,0.0
Green Brae ,5600184743,2011620,37.9333,-122.5167,0.0,1.0,0.0
Green Valley ,5600185311,2006848,31.85,-110.9833,0.0,1.0,0.0
Greenwich ,5600185417,2069493,43.0833,-73.4833,1.0,0.0,1.0
Greenwich ,5600185421,7014145,41.0167,-73.6167,0.0,2.0,0.0
Gualala ,5600186074,2011641,38.75,-123.5167,0.0,1.0,0.0
Guilford ,5600186144,2016959,41.2833,-72.6667,1.0,0.0,1.0
Grosse Ile ,5600186462,1007295,42.1167,-83.15,1.0,0.0,1.0
Hawaii ,5600210000,7007249,20,-157.8333,1.0,0.0,1.0
Hano ,5600211117,2006865,35.8333,-110.3833,1.0,1.0,0.0
Hartford ,5600212069,7013695,41.75,-72.6833,2.0,0.0,1.0
Hasbrouck Heights ,5600212297,2064940,40.85,-74.0667,1.0,0.0,1.0
Haverford Township ,5600212544,7013699,39.9833,-75.3,0.0,1.0,0.0
Hawley ,5600212640,2054621,46.8667,-96.3,1.0,0.0,1.0
Hillsboro ,5600215267,2067028,32.9167,-107.55,0.0,1.0,0.0
Hingham ,5600215594,2049904,42.2333,-70.8833,1.0,0.0,1.0
Hoboken ,5600215822,7013711,40.7333,-74.0167,1.0,0.0,1.0
Honolulu ,5600216875,7013718,21.3,-157.85,1.0,2.0,0.0
Hoosick Falls ,5600216995,2069761,42.9,-73.35,0.0,1.0,0.0
Housatonic ,5600217558,2049945,42.25,-73.3667,0.0,1.0,0.0
Hudson ,5600217908,2052234,41.85,-84.35,1.0,0.0,1.0
Idaho Falls ,5600240054,2025740,43.4667,-112.0333,1.0,0.0,1.0
Indianapolis ,5600240336,7012924,39.7667,-86.15,2.0,2.0,0.0
Ithaca ,5600241321,7013803,42.4333,-76.4833,1.0,1.0,0.0
Jacksonville ,5600270189,2028478,39.7333,-90.2167,0.0,1.0,0.0
Jaffrey ,5600270265,2063520,42.8,-72.0167,0.0,1.0,0.0
Jersey City ,5600270914,7013813,40.7167,-74.0667,2.0,0.0,1.0
Johnstown ,5600271363,2089650,40.9333,-77.05,1.0,0.0,1.0
Kentucky ,5600300001,7007255,37,-85,0.0,2.0,0.0
Kansas City ,5600300206,7013820,39.0833,-94.5667,1.0,0.0,1.0
Kennebunkport ,5600300925,2045020,43.35,-70.4667,1.0,0.0,1.0
Kenwood ,5600301135,2047609,39.2667,-76.7,0.0,1.0,0.0
Louisiana ,5600330000,7007256,31,-92,1.0,0.0,1.0
Lackawanna ,5600330092,2070062,42.8167,-78.8167,1.0,0.0,1.0
Laguna Beach ,5600330342,7013850,33.5333,-117.7667,0.0,2.0,0.0
Lee Vining ,5600333149,2012188,37.95,-119.1167,1.0,0.0,1.0
Leicester ,5600333240,2050001,42.2333,-71.9,1.0,0.0,1.0
Lenox ,5600333468,7016268,42.35,-73.2833,0.0,1.0,0.0
Lima ,5600334358,2070213,42.9,-77.6,1.0,0.0,1.0
Little Compton ,5600335062,2094991,41.5,-71.1667,0.0,1.0,0.0
Littleton ,5600335317,2050022,42.5333,-71.5,1.0,0.0,1.0
Logansport ,5600335907,2032657,40.75,-86.35,1.0,0.0,1.0
Lorain ,5600336554,7015732,41.45,-82.1667,1.0,0.0,1.0
Los Angeles ,5600336669,7023900,34.05,-118.2333,1.0,14.0,0.0
Louisville ,5600336870,7013915,38.25,-85.75,2.0,0.0,1.0
Lowell ,5600337025,7013975,42.6333,-71.3167,1.0,0.0,1.0
Long Island ,5600337962,7015899,40.852505,-73.135849,0.0,1.0,0.0
Maine ,5600360000,7007515,45,-69,1.0,0.0,1.0
Massachusetts ,5600360002,7007517,42.25,-71.8333,0.0,1.0,0.0
Michigan ,5600360003,7007520,44,-85,2.0,0.0,1.0
Missouri ,5600360007,7007523,38,-98,1.0,0.0,1.0
Macon ,5600360220,7013980,32.8333,-83.6167,0.0,1.0,0.0
Madison ,5600360305,7013966,43.0667,-89.4,2.0,1.0,1.0
Malden ,5600360705,7013986,42.4167,-71.0667,1.0,0.0,1.0
Manchester ,5600360887,2050062,42.5667,-70.7667,0.0,1.0,0.0
Marlboro ,5600361952,2109795,42.85,-72.7167,0.0,1.0,0.0
McHenry ,5600363802,2028902,42.3333,-88.2667,1.0,0.0,1.0
Medfield ,5600364523,7014022,42.1833,-71.3,0.0,1.0,0.0
Mexico City ,5600365392,2507401,32.785345,-103.433559,0.0,1.0,0.0
Middlebury ,5600365557,7014046,44,-73.1667,1.0,0.0,1.0
Middletown ,5600365685,7014048,41.5333,-71.2833,1.0,0.0,1.0
Middletown ,5600365706,7014047,41.55,-72.65,1.0,0.0,1.0
Milford ,5600366174,7014067,41.2167,-73.05,0.0,1.0,0.0
Milton ,5600366867,2515867,42.25,-71.0667,0.0,1.0,0.0
Milton ,5600366884,2070573,41.65,-73.95,1.0,0.0,1.0
Milwaukee ,5600366924,7014071,43.0333,-87.9,2.0,1.0,1.0
Minneapolis ,5600367119,7014080,44.9667,-93.25,1.0,0.0,1.0
Mobile ,5600367471,7017444,30.6833,-88.0333,1.0,0.0,1.0
Montclair ,5600367975,7014093,40.8167,-74.2,1.0,0.0,1.0
Monterey ,5600368040,7014095,36.6,-121.8833,0.0,3.0,0.0
Mooresville ,5600368511,2075752,35.5833,-80.8,1.0,0.0,1.0
Morristown ,5600368960,2065502,40.4167,-74.25,1.0,0.0,1.0
Mount Vernon ,5600370300,2111632,38.7,-77.0833,0.0,1.0,0.0
Manhattan ,5600371106,7022657,40.7833,-73.9667,1.0,11.0,0.0
Moylan ,5600371112,2091169,39.9,-75.3833,0.0,1.0,0.0
Nebraska ,5600390000,7007525,41.5,-100,1.0,0.0,1.0
New Mexico ,5600390004,7007566,35,-105,1.0,1.0,0.0
New York state ,5600390005,7007568,43,-75,2.0,9.0,0.0
North Carolina ,5600390006,7007709,35.5,-80,0.0,1.0,0.0
Nashville-Davidson ,5600390323,7013959,36.167782,-86.778358,1.0,0.0,1.0
Navasota ,5600390454,2106229,30.3833,-96.0833,0.0,1.0,0.0
Needham ,5600390596,2050190,42.2833,-71.2333,0.0,1.0,0.0
Needles ,5600390599,2012904,34.8333,-114.6,0.0,1.0,0.0
Newark ,5600391028,2080951,40.05,-82.4,1.0,0.0,1.0
Newark ,5600391033,7014218,40.7333,-74.1667,5.0,0.0,1.0
Newburgh ,5600391197,7015835,41.5,-74,1.0,0.0,1.0
New Haven ,5600391554,7014210,41.3,-72.9167,4.0,0.0,1.0
New Hope ,5600391661,7014211,40.35,-74.95,0.0,1.0,0.0
New Ipswich ,5600391715,2063644,42.7333,-71.85,0.0,1.0,0.0
New Orleans ,5600391952,7014214,29.95,-90.0667,1.0,2.0,0.0
Newport ,5600391997,2040496,39.0833,-84.4833,1.0,0.0,1.0
Newport ,5600392011,7014221,41.4833,-71.3,0.0,2.0,0.0
New Rochelle ,5600392096,2070774,40.9,-73.7667,0.0,1.0,0.0
Newton ,5600392218,2540524,41.2167,-75.8833,0.0,1.0,0.0
Newton ,5600392225,2050214,42.3333,-71.2,0.0,2.0,0.0
New York City ,5600392409,7007567,40.7,-74,40.0,63.0,0.0
North Easton ,5600393437,7014238,42.0667,-71.1,0.0,1.0,0.0
Norwood ,5600394473,2050333,42.1833,-71.2,0.0,1.0,0.0
New Kent county ,5600394794,1002713,37.4833,-77,1.0,0.0,1.0
Ohio ,5600420000,7007706,40,-80.8333,2.0,0.0,1.0
Oakland ,5600420502,7014250,37.8,-122.2667,1.0,0.0,1.0
Oberlin ,5600421036,2554960,40.0951,-82.482681,0.0,1.0,0.0
Ogden ,5600421329,7014262,41.2167,-111.9667,1.0,0.0,1.0
Ojai ,5600421452,2013084,34.4333,-119.2,0.0,1.0,0.0
Old Lyme ,5600421851,7014283,41.3,-72.3167,0.0,2.0,0.0
Orange ,5600422668,2017281,41.2667,-73.0167,0.0,1.0,0.0
Orange ,5600422673,2065747,40.7667,-74.2167,0.0,1.0,0.0
Ossining ,5600423303,2071503,41.15,-73.85,1.0,0.0,1.0
Owasco ,5600423631,2071528,42.85,-76.45,1.0,0.0,1.0
Oahu ,5600423863,7019080,21.4333,-157.9667,1.0,0.0,1.0
Pennsylvania ,5600450000,7007710,40.8333,-76,2.0,1.0,1.0
Palo Alto ,5600450479,7014386,37.4333,-122.1333,0.0,2.0,0.0
Pasadena ,5600451399,7014389,34.1667,-118.15,1.0,2.0,0.0
Passaic ,5600451433,2065794,40.85,-74.1167,1.0,0.0,1.0
Peoria ,5600452647,7017520,40.6833,-89.5833,1.0,0.0,1.0
Philadelphia ,5600453283,7014406,39.95,-75.15,20.0,12.0,1.0
Phillips ,5600453330,7014407,45.6833,-90.4,1.0,0.0,1.0
Pimlico ,5600453811,2096475,33.0833,-79.95,0.0,1.0,0.0
Pittsburgh ,5600454959,7013927,40.4333,-79.9833,3.0,0.0,1.0
Pittsfield ,5600454963,7014416,42.45,-73.2333,1.0,0.0,1.0
Placerville ,5600455008,2013381,38.7167,-120.7833,1.0,0.0,1.0
Plainfield ,5600455038,7014417,43.5333,-72.35,1.0,0.0,1.0
Pole Tavern ,5600456250,2065907,39.6167,-75.2167,1.0,0.0,1.0
Pomfret ,5600456356,2017311,41.8833,-71.95,1.0,0.0,1.0
Pomona ,5600456364,7014425,34.05,-117.75,0.0,2.0,0.0
Portland ,5600456965,7014273,45.5167,-122.6667,2.0,0.0,1.0
Portland ,5600456980,7014272,43.65,-70.25,1.0,2.0,0.0
Portland Heights ,5600456983,2594522,45.5,-122.7,0.0,1.0,0.0
Portsmouth ,5600457063,7014275,43.0667,-70.75,2.0,0.0,1.0
Potter Valley ,5600457280,2013449,39.3167,-123.1,1.0,1.0,0.0
Pottsville ,5600457299,2092203,40.6833,-76.1833,0.0,1.0,0.0
Poughkeepsie ,5600457310,7014282,41.7,-73.9167,1.0,0.0,1.0
Providence ,5600458191,7013952,41.8167,-71.4,2.0,3.0,0.0
Provo ,5600458247,7014298,40.2333,-111.65,0.0,1.0,0.0
Quincy ,5600480298,7014307,42.25,-71,1.0,0.0,1.0
Rhode Island ,5600510000,7007711,41.6667,-71.5,0.0,1.0,0.0
Ravenna ,5600510756,2081533,41.15,-81.2333,1.0,0.0,1.0
Rayford ,5600510852,2107053,30.1167,-95.4167,0.0,1.0,0.0
Rehoboth ,5600511758,2050475,41.8333,-71.25,1.0,0.0,1.0
Rhinebeck ,5600512248,2071898,41.9167,-73.9,0.0,1.0,0.0
Richmond ,5600512573,7014335,37.9333,-122.3333,0.0,1.0,0.0
Ridgefield ,5600512769,7014339,41.2667,-73.4833,1.0,1.0,0.0
Riverdale ,5600513380,2620552,43.2,-75.4167,0.0,1.0,0.0
Rochester ,5600514137,7014348,43.15,-77.6,2.0,0.0,1.0
Rockport ,5600514500,2050502,42.65,-70.6167,0.0,1.0,0.0
Roosevelt ,5600515287,2066071,40.2167,-74.4667,0.0,1.0,0.0
Roscoe ,5600515375,2041089,38.0333,-83.0833,1.0,0.0,1.0
Royal Oak ,5600516230,7016391,42.4833,-83.1333,0.0,1.0,0.0
Roxbury ,5600516934,7015002,42.3167,-71.0833,1.0,0.0,1.0
Sacramento ,5600540069,7017902,38.5667,-121.4833,1.0,3.0,0.0
Saint Charles ,5600540269,2060333,38.7833,-90.4667,1.0,0.0,1.0
Saint Cloud ,5600540308,2055406,45.55,-94.15,0.0,1.0,0.0
Saint Louis ,5600540529,7014444,38.6167,-90.1833,2.0,0.0,1.0
Saint Paul ,5600540623,7013947,44.9333,-93.0833,2.0,1.0,1.0
Salem ,5600540757,2085479,44.9333,-123.0333,1.0,0.0,1.0
Salem ,5600540775,7014448,38.5167,-78.0667,1.0,0.0,1.0
Salem ,5600540795,7014447,42.5167,-70.8833,1.0,0.0,1.0
Salisbury ,5600540899,2017360,41.9833,-73.4167,0.0,1.0,0.0
Salt Lake City ,5600540991,7013960,40.75,-111.8833,2.0,2.0,0.0
San Antonio ,5600541138,7014453,29.4167,-98.4833,2.0,2.0,0.0
San Diego ,5600541331,7014455,32.7,-117.15,0.0,2.0,0.0
San Francisco ,5600541644,7014456,37.7667,-122.4167,8.0,8.0,0.0
San Gabriel ,5600541653,2013969,34.0833,-118.1,0.0,1.0,0.0
San Ildefonso Pueblo ,5600541681,7014551,35.8833,-106.1167,1.0,1.0,0.0
Santa Barbara ,5600541837,7017752,34.4167,-119.6833,0.0,1.0,0.0
Santa Fe ,5600541864,7013950,35.6833,-105.9333,0.0,4.0,0.0
Santa Monica ,5600541887,7003736,34.0167,-118.4833,0.0,1.0,0.0
Santa Paula ,5600541893,2014128,34.35,-119.05,0.0,1.0,0.0
Santa Rosa ,5600541906,2014133,38.4333,-122.7,1.0,1.0,0.0
Sausalito ,5600542217,2014167,37.85,-122.4833,1.0,1.0,0.0
Schulenburg ,5600542648,2107527,29.6667,-96.9,1.0,0.0,1.0
Seattle ,5600543168,7014494,47.6,-122.3167,1.0,1.0,0.0
Shaker Heights ,5600544144,2081835,41.4667,-81.5333,0.0,1.0,0.0
Shandaken ,5600544220,2072239,42.1167,-74.3833,0.0,1.0,0.0
Shreveport ,5600545576,7014504,32.5167,-93.75,0.0,1.0,0.0
Silver Spring ,5600546064,2048731,38.9833,-77.0167,0.0,1.0,0.0
Sitka ,5600546398,7019697,57.05,-135.3167,0.0,1.0,0.0
Sleepy Hollow ,5600546821,7014244,41.0833,-73.85,0.0,1.0,0.0
Somes Bar ,5600547790,2675782,41.3667,-123.4667,1.0,1.0,0.0
Southampton ,5600547941,7014521,40.8833,-72.3833,0.0,1.0,0.0
Township of South Orange Village ,5600548585,2681257,40.7833,-74.25,1.0,0.0,1.0
South Orrington ,5600548590,2045644,44.6833,-68.8167,0.0,1.0,0.0
Springdale ,5600549587,2687917,39.95,-76.7,1.0,0.0,1.0
Springfield ,5600549622,7014529,39.8,-89.6333,1.0,0.0,1.0
Springfield ,5600549623,7014531,42.1,-72.5833,1.0,0.0,1.0
Springwater ,5600550041,2072512,42.6333,-77.5833,1.0,0.0,1.0
Stamford ,5600550297,7014535,41.05,-73.5333,0.0,1.0,0.0
Stonington ,5600551689,2017438,41.3333,-71.9,0.0,1.0,0.0
Sun City ,5600552963,2007376,33.5833,-112.2667,0.0,1.0,0.0
Sun Prairie ,5600553217,2122491,43.1833,-89.2,1.0,0.0,1.0
Superior ,5600553517,7014722,46.7167,-92.1,1.0,0.0,1.0
Syracuse ,5600554232,7014561,43.0333,-76.1333,2.0,1.0,1.0
San Bernardino county ,5600554243,1002857,34.6667,-116.1667,0.0,1.0,0.0
Staten Island ,5600554245,7022656,40.5833,-74.15,0.0,1.0,0.0
Taos ,5600570469,7014564,36.4,-105.5667,0.0,3.0,0.0
Templeton ,5600571056,2050746,42.55,-72.0667,1.0,0.0,1.0
Thayer ,5600571408,2037215,37.4833,-95.4667,1.0,0.0,1.0
Tipton ,5600572715,2035770,41.7667,-91.1167,1.0,0.0,1.0
Toledo ,5600572931,7014378,41.65,-83.55,0.0,1.0,0.0
Tonawanda ,5600573052,7016399,43.0167,-78.8667,1.0,0.0,1.0
Torrance ,5600573212,7014380,33.8333,-118.3333,0.0,1.0,0.0
Trenton ,5600573688,7013951,40.2167,-74.7333,0.0,2.0,0.0
Truro ,5600574101,2050766,41.9833,-70.05,0.0,1.0,0.0
Tucson ,5600574223,7014661,32.2167,-110.9167,0.0,1.0,0.0
Virginia Beach ,5600631694,7014572,36.85,-75.9667,0.0,1.0,0.0
Washington ,5600661476,7013962,38.8833,-77.0333,3.0,13.0,0.0
Watertown ,5600661770,2017537,41.6,-73.1167,1.0,0.0,1.0
Watertown ,5600661776,7014591,42.3667,-71.1833,2.0,0.0,1.0
West Brewster ,5600663104,2758248,41.7333,-70.1,0.0,1.0,0.0
West Chester ,5600663216,7014606,39.95,-75.6,0.0,1.0,0.0
Westfield ,5600663476,7014615,40.65,-74.3333,0.0,1.0,0.0
West Redding ,5600664228,2017584,41.3167,-73.4333,0.0,1.0,0.0
West Springfield ,5600664349,2050928,42.1,-72.6167,0.0,1.0,0.0
Wichita ,5600665794,7016216,37.6833,-97.3333,1.0,0.0,1.0
Wilmington ,5600666852,7014632,39.7333,-75.5333,1.0,1.0,0.0
Windham ,5600667173,2017610,41.6833,-72.15,0.0,1.0,0.0
Winona ,5600667521,2055787,44.05,-91.6333,1.0,0.0,1.0
Winter Park ,5600667627,7014638,28.5833,-81.3333,0.0,1.0,0.0
Woodbury ,5600668100,7014640,41.5333,-73.2,0.0,2.0,0.0
Woodstock ,5600668755,2782179,42.3167,-74,0.0,1.0,0.0
Woodstock ,5600668764,7014644,42.0333,-74.1167,0.0,1.0,0.0
Westchester ,5600669332,7015889,40.8333,-73.85,0.0,1.0,0.0
Yanceyville ,5600720072,2077361,36.4,-79.3333,1.0,0.0,1.0
Yuma ,5600720619,7013935,32.7167,-114.6167,1.0,0.0,1.0
Zephyrhills ,5600750121,2021852,28.2333,-82.1667,0.0,1.0,0.0
Zia Pueblo ,5600750135,2067705,35.5,-106.7167,1.0,1.0,0.0
Australia ,6002000000,7000490,-25,135,1.0,1.0,0.0
Adelaide ,6002000011,7001904,-34.9333,138.6,3.0,5.0,0.0
Ballarat ,6002030018,7001889,-37.6,143.9667,2.0,0.0,1.0
Bendigo ,6002030100,7001927,-36.8,144.35,1.0,0.0,1.0
Brighton ,6002030229,1096373,-35.05,138.5333,1.0,0.0,1.0
Brisbane ,6002030237,7001911,-27.5,153,0.0,1.0,0.0
Burnside ,6002030291,1096433,-34.9333,138.65,1.0,0.0,1.0
Canberra ,6002060031,7001867,-35.3,149.1333,0.0,2.0,0.0
Fremantle ,6002150040,7001888,-32.05,115.7667,1.0,0.0,1.0
Gladesville ,6002180036,1096963,-33.8333,151.1333,0.0,1.0,0.0
Ipswich ,6002240021,1097172,-27.6333,152.6667,1.0,0.0,1.0
Kyneton ,6002300115,1097317,-37.2833,144.5167,1.0,0.0,1.0
Macedon ,6002360003,1097432,-37.4167,144.5667,0.0,1.0,0.0
Melbourne ,6002360095,7001933,-37.816,144.9667,7.0,9.0,0.0
Mosman ,6002360200,1097621,-33.8167,151.2333,0.0,1.0,0.0
New South Wales ,6002390000,7001828,-28.25,153.5,1.0,1.0,0.0
Perth ,6002450047,7001977,-31.9667,115.8167,1.0,2.0,0.0
Port Adelaide ,6002450084,1097974,-34.8667,138.5,1.0,0.0,1.0
Sydney ,6002540139,7001923,-33.9167,151.1667,2.0,2.0,0.0
Victoria ,6002630000,7006238,-34.25,141.5,0.0,1.0,0.0
Western Australia ,6002660000,7001834,-16,127.5,0.0,1.0,0.0
Warrandyte ,6002660046,1098461,-37.75,145.2333,0.0,1.0,0.0
New Zealand ,6391000000,1000226,-42,174,3.0,0.0,1.0
Auckland ,6391000017,7001766,-36.9167,174.7833,3.0,4.0,0.0
Blenheim ,6391030007,7001778,-41.5333,173.9667,0.0,1.0,0.0
Christchurch ,6391060010,7001791,-43.55,172.6667,3.0,2.0,1.0
Canterbury ,6391060024,7001866,-44,171,1.0,0.0,1.0
Dunedin ,6391090009,7001792,-45.8667,170.5,2.0,0.0,1.0
Hamilton ,6391210003,7001793,-37.7667,175.3,1.0,0.0,1.0
Hastings ,6391210009,1098956,-39.65,176.8667,1.0,0.0,1.0
Invercargill ,6391240003,7001794,-46.4333,168.35,1.0,0.0,1.0
Napier ,6391390001,7001773,-39.4833,176.9667,1.0,0.0,1.0
Thames ,6391570039,7001767,-37.1333,175.55,1.0,0.0,1.0
Wellington ,6391660053,7001775,-41.2833,174.7833,0.0,5.0,0.0
Buenos Aires ,7001030045,7006287,-34.6667,-58.5,5.0,4.0,1.0
San Pedro ,7001540080,1136465,-27.9833,-65.2167,1.0,0.0,1.0
La Paz ,7030330004,7005499,-16.5,-68.1667,1.0,0.0,1.0
Avar¨¦ ,7031000252,1020728,-23.1,-48.95,1.0,0.0,1.0
Belo Horizonte ,7031030094,1020827,-19.9,-43.9,1.0,0.0,1.0
Capivari ,7031060141,1021068,-23,-47.5167,1.0,0.0,1.0
Goiana ,7031180025,1021493,-7.5,-35,1.0,0.0,1.0
Itapetininga ,7031240176,1021744,-23.6,-48.1167,1.0,0.0,1.0
Rio de Janeiro ,7031510061,7017095,-22.8833,-43.2833,2.0,4.0,0.0
S_o Paulo ,7031540259,7017121,-23.55,-46.65,1.0,5.0,0.0
Chile ,7060000000,1000049,-30,-71,0.0,1.0,0.0
Chill¨¢n ,7060060023,1023409,-36.6,-72.116667,1.0,0.0,1.0
Concepci¨®n ,7060060039,1023425,-36.833333,-73.05,1.0,0.0,1.0
Constituci¨®n ,7060060043,1023428,-35.333333,-72.416667,1.0,0.0,1.0
Iquique ,7060240004,1023475,-20.22083,-70.14306,1.0,0.0,1.0
Regi¨®n Metropolitana de Santiago ,7060540000,1001708,-33.5,-70.5,0.0,1.0,0.0
San Fernando ,7060540011,1023629,-34.6667,-71,1.0,0.0,1.0
Santiago ,7060540034,7002591,-33.45,-70.666667,1.0,4.0,0.0
Valpara¨ªso ,7060630003,7005087,-33.047778,-71.601111,1.0,0.0,1.0
Medell¨ªn ,7061360015,7005073,6.25,-75.6,1.0,1.0,0.0
Asunci¨®n ,7450000007,7005280,-25.2667,-57.6667,1.0,1.0,0.0
Lima ,7451330031,7005821,-12.05,-77.05,2.0,2.0,0.0
Montevideo department ,7600360001,1000699,-34.8333,-56.1667,0.0,1.0,0.0
Caracas ,7630060016,7005022,10.5,-66.9167,1.0,2.0,0.0
